<?xml version="1.0" encoding="UTF-8"?>
<TTWSAirports>
	<Airport>
		<Code>AAA</Code>
		<Name>Anaa, French Polynesia</Name>
		<TimeZone>
			<StandardTime>-10</StandardTime>
		</TimeZone>
		<Other iso2="PF" iso3="PYF" StateCode="" Country="French Polynesia" GeoZone="PAC" Latitude="-17.355000" Longitude="145.508333" />
	</Airport>
	<Airport>
		<Code>AAC</Code>
		<Name>Al Arish, Egypt</Name>
		<TimeZone>
			<StandardTime>2</StandardTime>
			<DaylightSaving StartDate="2004-04-30" EndDate="2004-09-30">3</DaylightSaving>
		</TimeZone>
		<Other iso2="EG" iso3="EGY" StateCode="" Country="Egypt" GeoZone="AFR" Latitude="31.073333" Longitude="-33.835833" />
	</Airport>
	<Airport>
		<Code>AAE</Code>
		<Name>Annaba, Algeria</Name>
		<TimeZone>
			<StandardTime>1</StandardTime>
		</TimeZone>
		<Other iso2="DZ" iso3="DZA" StateCode="" Country="Algeria" GeoZone="AFR" Latitude="36.822222" Longitude="-7.809444" />
	</Airport>
	<Airport>
		<Code>AAF</Code>
		<Name>Apalachicola, FL, United States</Name>
		<TimeZone>
			<StandardTime>0</StandardTime>
		</TimeZone>
		<Other iso2="US" iso3="USA" StateCode="FL" Country="United States" GeoZone="NAM" Latitude="29.727547" Longitude="85.027447" />
	</Airport>
	<Airport>
		<Code>AAK</Code>
		<Name>Aranuka, </Name>
		<TimeZone>
			<StandardTime>12</StandardTime>
		</TimeZone>
	</Airport>
	<Airport>
		<Code>AAL</Code>
		<Name>Aalborg, Denmark</Name>
		<TimeZone>
			<StandardTime>1</StandardTime>
			<DaylightSaving StartDate="2004-03-28" EndDate="2004-10-31">2</DaylightSaving>
		</TimeZone>
		<Other iso2="DK" iso3="DNK" StateCode="" Country="Denmark" GeoZone="EUR" Latitude="57.092789" Longitude="-9.849164" />
	</Airport>
	<Airport>
		<Code>AAM</Code>
		<Name>Mala Mala, South Africa</Name>
		<TimeZone>
			<StandardTime>0</StandardTime>
		</TimeZone>
		<Other iso2="ZA" iso3="ZAF" StateCode="" Country="South Africa" GeoZone="AFR" Latitude="-24.817583" Longitude="-31.544714" />
	</Airport>
	<Airport>
		<Code>AAN</Code>
		<Name>Al Ain, United Arab Emirates</Name>
		<TimeZone>
			<StandardTime>4</StandardTime>
		</TimeZone>
		<Other iso2="AE" iso3="ARE" StateCode="" Country="United Arab Emirates" GeoZone="MEA" Latitude="24.261667" Longitude="-55.609167" />
	</Airport>
	<Airport>
		<Code>AAO</Code>
		<Name>Anaco, Venezuela</Name>
		<TimeZone>
			<StandardTime>0</StandardTime>
		</TimeZone>
		<Other iso2="VE" iso3="VEN" StateCode="" Country="Venezuela" GeoZone="LAM" Latitude="9.433333" Longitude="64.466667" />
	</Airport>
	<Airport>
		<Code>AAQ</Code>
		<Name>Anapa, Russia</Name>
		<TimeZone>
			<StandardTime>3</StandardTime>
			<DaylightSaving StartDate="2004-03-28" EndDate="2004-10-31">4</DaylightSaving>
		</TimeZone>
		<Other iso2="RU" iso3="RUS" StateCode="" Country="Russia" GeoZone="EUR" Latitude="45.001667" Longitude="-37.348333" />
	</Airport>
	<Airport>
		<Code>AAR</Code>
		<Name>Aarhus, Denmark</Name>
		<TimeZone>
			<StandardTime>1</StandardTime>
			<DaylightSaving StartDate="2004-03-28" EndDate="2004-10-31">2</DaylightSaving>
		</TimeZone>
		<Other iso2="DK" iso3="DNK" StateCode="" Country="Denmark" GeoZone="EUR" Latitude="56.300017" Longitude="-10.619008" />
	</Airport>
	<Airport>
		<Code>AAT</Code>
		<Name>Altay, </Name>
		<TimeZone>
			<StandardTime>8</StandardTime>
		</TimeZone>
	</Airport>
	<Airport>
		<Code>AAX</Code>
		<Name>Araxa, Brazil</Name>
		<TimeZone>
			<StandardTime>0</StandardTime>
		</TimeZone>
		<Other iso2="BR" iso3="BRA" StateCode="" Country="Brazil" GeoZone="LAM" Latitude="-19.560556" Longitude="46.965556" />
	</Airport>
	<Airport>
		<Code>AAY</Code>
		<Name>Al Ghaydah, Yemen</Name>
		<TimeZone>
			<StandardTime>3</StandardTime>
		</TimeZone>
		<Other iso2="YE" iso3="YEM" StateCode="" Country="Yemen" GeoZone="MEA" Latitude="16.193333" Longitude="-52.174167" />
	</Airport>
	<Airport>
		<Code>ABA</Code>
		<Name>Abakan, Russia</Name>
		<TimeZone>
			<StandardTime>3</StandardTime>
			<DaylightSaving StartDate="2004-03-28" EndDate="2004-10-31">4</DaylightSaving>
		</TimeZone>
		<Other iso2="RU" iso3="RUS" StateCode="" Country="Russia" GeoZone="EUR" Latitude="53.741667" Longitude="-91.385000" />
	</Airport>
	<Airport>
		<Code>ABC</Code>
		<Name>Albacete, Spain</Name>
		<TimeZone>
			<StandardTime>0</StandardTime>
		</TimeZone>
		<Other iso2="ES" iso3="ESP" StateCode="" Country="Spain" GeoZone="EUR" Latitude="38.948472" Longitude="1.863444" />
	</Airport>
	<Airport>
		<Code>ABD</Code>
		<Name>Abadan, Iran</Name>
		<TimeZone>
			<StandardTime>3:30</StandardTime>
			<DaylightSaving StartDate="2004-03-21" EndDate="2004-09-20">4:30</DaylightSaving>
		</TimeZone>
		<Other iso2="IR" iso3="IRN" StateCode="" Country="Iran" GeoZone="MEA" Latitude="30.371111" Longitude="-48.228333" />
	</Airport>
	<Airport>
		<Code>ABE</Code>
		<Name>Allentown, PA, United States</Name>
		<TimeZone>
			<StandardTime>-5</StandardTime>
			<DaylightSaving StartDate="2004-04-04" EndDate="2004-10-31">-4</DaylightSaving>
		</TimeZone>
		<Other iso2="US" iso3="USA" StateCode="PA" Country="United States" GeoZone="NAM" Latitude="40.652364" Longitude="75.440403" />
	</Airport>
	<Airport>
		<Code>ABF</Code>
		<Name>Abaiang, </Name>
		<TimeZone>
			<StandardTime>12</StandardTime>
		</TimeZone>
	</Airport>
	<Airport>
		<Code>ABH</Code>
		<Name>Alpha, Australia</Name>
		<TimeZone>
			<StandardTime>0</StandardTime>
		</TimeZone>
		<Other iso2="AU" iso3="AUS" StateCode="" Country="Australia" GeoZone="PAC" Latitude="-23.646111" Longitude="-146.583611" />
	</Airport>
	<Airport>
		<Code>ABI</Code>
		<Name>Abilene, TX, United States</Name>
		<TimeZone>
			<StandardTime>-6</StandardTime>
			<DaylightSaving StartDate="2004-04-04" EndDate="2004-10-31">-5</DaylightSaving>
		</TimeZone>
		<Other iso2="US" iso3="USA" StateCode="TX" Country="United States" GeoZone="NAM" Latitude="32.411319" Longitude="99.681897" />
	</Airport>
	<Airport>
		<Code>ABJ</Code>
		<Name>Abidjan, Ivory Coast</Name>
		<TimeZone>
			<StandardTime>0</StandardTime>
		</TimeZone>
		<Other iso2="CI" iso3="CIV" StateCode="" Country="Ivory Coast" GeoZone="AFR" Latitude="5.254500" Longitude="3.928667" />
	</Airport>
	<Airport>
		<Code>ABK</Code>
		<Name>Kabri Dar, Ethiopia</Name>
		<TimeZone>
			<StandardTime>0</StandardTime>
		</TimeZone>
		<Other iso2="ET" iso3="ETH" StateCode="" Country="Ethiopia" GeoZone="AFR" Latitude="6.730556" Longitude="-44.228611" />
	</Airport>
	<Airport>
		<Code>ABL</Code>
		<Name>Ambler, AK, United States</Name>
		<TimeZone>
			<StandardTime>-9</StandardTime>
			<DaylightSaving StartDate="2004-04-04" EndDate="2004-10-31">-8</DaylightSaving>
		</TimeZone>
		<Other iso2="US" iso3="USA" StateCode="AK" Country="United States" GeoZone="NAM" Latitude="67.106314" Longitude="157.857472" />
	</Airport>
	<Airport>
		<Code>ABM</Code>
		<Name>Bamaga, Australia</Name>
		<TimeZone>
			<StandardTime>10</StandardTime>
		</TimeZone>
		<Other iso2="AU" iso3="AUS" StateCode="" Country="Australia" GeoZone="PAC" Latitude="-10.950833" Longitude="-142.459444" />
	</Airport>
	<Airport>
		<Code>ABQ</Code>
		<Name>Albuquerque, NM, United States</Name>
		<TimeZone>
			<StandardTime>-7</StandardTime>
			<DaylightSaving StartDate="2004-04-04" EndDate="2004-10-31">-6</DaylightSaving>
		</TimeZone>
		<Other iso2="US" iso3="USA" StateCode="NM" Country="United States" GeoZone="NAM" Latitude="35.040222" Longitude="106.609194" />
	</Airport>
	<Airport>
		<Code>ABR</Code>
		<Name>Aberdeen, SD, United States</Name>
		<TimeZone>
			<StandardTime>-6</StandardTime>
			<DaylightSaving StartDate="2004-04-04" EndDate="2004-10-31">-5</DaylightSaving>
		</TimeZone>
		<Other iso2="US" iso3="USA" StateCode="SD" Country="United States" GeoZone="NAM" Latitude="45.449056" Longitude="98.421833" />
	</Airport>
	<Airport>
		<Code>ABS</Code>
		<Name>Abu Simbel, Egypt</Name>
		<TimeZone>
			<StandardTime>2</StandardTime>
			<DaylightSaving StartDate="2004-04-30" EndDate="2004-09-30">3</DaylightSaving>
		</TimeZone>
		<Other iso2="EG" iso3="EGY" StateCode="" Country="Egypt" GeoZone="AFR" Latitude="22.375833" Longitude="-31.611667" />
	</Airport>
	<Airport>
		<Code>ABT</Code>
		<Name>Al-Baha, Saudi Arabia</Name>
		<TimeZone>
			<StandardTime>3</StandardTime>
		</TimeZone>
		<Other iso2="SA" iso3="SAU" StateCode="" Country="Saudi Arabia" GeoZone="MEA" Latitude="20.296056" Longitude="-41.634083" />
	</Airport>
	<Airport>
		<Code>ABV</Code>
		<Name>Abuja, Nigeria</Name>
		<TimeZone>
			<StandardTime>1</StandardTime>
		</TimeZone>
		<Other iso2="NG" iso3="NGA" StateCode="" Country="Nigeria" GeoZone="AFR" Latitude="9.006944" Longitude="-7.263056" />
	</Airport>
	<Airport>
		<Code>ABX</Code>
		<Name>Albury, Australia</Name>
		<TimeZone>
			<StandardTime>10</StandardTime>
			<DaylightSaving StartDate="2004-10-03" EndDate="2004-03-28">11</DaylightSaving>
		</TimeZone>
		<Other iso2="AU" iso3="AUS" StateCode="" Country="Australia" GeoZone="PAC" Latitude="-36.067778" Longitude="-146.958056" />
	</Airport>
	<Airport>
		<Code>ABY</Code>
		<Name>Albany, GA, United States</Name>
		<TimeZone>
			<StandardTime>-5</StandardTime>
			<DaylightSaving StartDate="2004-04-04" EndDate="2004-10-31">-4</DaylightSaving>
		</TimeZone>
		<Other iso2="US" iso3="USA" StateCode="GA" Country="United States" GeoZone="NAM" Latitude="31.535514" Longitude="84.194472" />
	</Airport>
	<Airport>
		<Code>ABZ</Code>
		<Name>Aberdeen, United Kingdom</Name>
		<TimeZone>
			<StandardTime>0</StandardTime>
			<DaylightSaving StartDate="2004-03-28" EndDate="2004-10-31">1</DaylightSaving>
		</TimeZone>
		<Other iso2="GB" iso3="GBR" StateCode="" Country="United Kingdom" GeoZone="EUR" Latitude="57.201944" Longitude="2.197778" />
	</Airport>
	<Airport>
		<Code>ACA</Code>
		<Name>Acapulco, Mexico</Name>
		<TimeZone>
			<StandardTime>-6</StandardTime>
			<DaylightSaving StartDate="2004-04-04" EndDate="2004-10-31">-5</DaylightSaving>
		</TimeZone>
		<Other iso2="MX" iso3="MEX" StateCode="" Country="Mexico" GeoZone="CAM" Latitude="16.757097" Longitude="99.753819" />
	</Airport>
	<Airport>
		<Code>ACB</Code>
		<Name>Bellaire Antrim, United States</Name>
		<TimeZone>
			<StandardTime>0</StandardTime>
		</TimeZone>
		<Other iso2="US" iso3="USA" StateCode="MI" Country="United States" GeoZone="NAM" Latitude="44.988575" Longitude="85.198356" />
	</Airport>
	<Airport>
		<Code>ACC</Code>
		<Name>Accra, Ghana</Name>
		<TimeZone>
			<StandardTime>0</StandardTime>
		</TimeZone>
		<Other iso2="GH" iso3="GHA" StateCode="" Country="Ghana" GeoZone="AFR" Latitude="5.596389" Longitude="0.170000" />
	</Airport>
	<Airport>
		<Code>ACE</Code>
		<Name>Lanzarote, Spain</Name>
		<TimeZone>
			<StandardTime>0</StandardTime>
			<DaylightSaving StartDate="2004-03-28" EndDate="2004-10-31">1</DaylightSaving>
		</TimeZone>
		<Other iso2="ES" iso3="ESP" StateCode="" Country="Spain" GeoZone="EUR" Latitude="28.945464" Longitude="13.605225" />
	</Airport>
	<Airport>
		<Code>ACH</Code>
		<Name>Altenrhein, Switzerland</Name>
		<TimeZone>
			<StandardTime>1</StandardTime>
			<DaylightSaving StartDate="2004-03-28" EndDate="2004-10-31">2</DaylightSaving>
		</TimeZone>
		<Other iso2="CH" iso3="CHE" StateCode="" Country="Switzerland" GeoZone="EUR" Latitude="47.485000" Longitude="-9.561944" />
	</Airport>
	<Airport>
		<Code>ACI</Code>
		<Name>Aldemey, United Kingdom</Name>
		<TimeZone>
			<StandardTime>0</StandardTime>
			<DaylightSaving StartDate="2004-03-28" EndDate="2004-10-31">1</DaylightSaving>
		</TimeZone>
		<Other iso2="GB" iso3="GBR" StateCode="" Country="United Kingdom" GeoZone="EUR" Latitude="49.706111" Longitude="2.214722" />
	</Airport>
	<Airport>
		<Code>ACJ</Code>
		<Name>Americus Souther, United States</Name>
		<TimeZone>
			<StandardTime>0</StandardTime>
		</TimeZone>
		<Other iso2="US" iso3="USA" StateCode="GA" Country="United States" GeoZone="NAM" Latitude="32.110797" Longitude="84.188847" />
	</Airport>
	<Airport>
		<Code>ACK</Code>
		<Name>Nantucket, MA, United States</Name>
		<TimeZone>
			<StandardTime>-5</StandardTime>
			<DaylightSaving StartDate="2004-04-04" EndDate="2004-10-31">-4</DaylightSaving>
		</TimeZone>
		<Other iso2="US" iso3="USA" StateCode="MA" Country="United States" GeoZone="NAM" Latitude="41.253053" Longitude="70.060181" />
	</Airport>
	<Airport>
		<Code>ACN</Code>
		<Name>Ciudad Acuna, Mexico</Name>
		<TimeZone>
			<StandardTime>0</StandardTime>
		</TimeZone>
		<Other iso2="MX" iso3="MEX" StateCode="" Country="Mexico" GeoZone="CAM" Latitude="29.331667" Longitude="100.981111" />
	</Airport>
	<Airport>
		<Code>ACP</Code>
		<Name>Maragheh Sahand, Iran</Name>
		<TimeZone>
			<StandardTime>0</StandardTime>
		</TimeZone>
		<Other iso2="IR" iso3="IRN" StateCode="" Country="Iran" GeoZone="MEA" Latitude="37.348056" Longitude="-46.133056" />
	</Airport>
	<Airport>
		<Code>ACR</Code>
		<Name>Araracuara, Colombia</Name>
		<TimeZone>
			<StandardTime>0</StandardTime>
		</TimeZone>
		<Other iso2="CO" iso3="COL" StateCode="" Country="Colombia" GeoZone="LAM" Latitude="-0.600728" Longitude="72.397975" />
	</Airport>
	<Airport>
		<Code>ACS</Code>
		<Name>Achinsk, </Name>
		<TimeZone>
			<StandardTime>3</StandardTime>
			<DaylightSaving StartDate="2004-03-28" EndDate="2004-10-31">4</DaylightSaving>
		</TimeZone>
	</Airport>
	<Airport>
		<Code>ACT</Code>
		<Name>Waco, TX, United States</Name>
		<TimeZone>
			<StandardTime>-6</StandardTime>
			<DaylightSaving StartDate="2004-04-04" EndDate="2004-10-31">-5</DaylightSaving>
		</TimeZone>
		<Other iso2="US" iso3="USA" StateCode="TX" Country="United States" GeoZone="NAM" Latitude="31.611289" Longitude="97.230519" />
	</Airport>
	<Airport>
		<Code>ACV</Code>
		<Name>Eureka/Arcata, CA, United States</Name>
		<TimeZone>
			<StandardTime>-8</StandardTime>
			<DaylightSaving StartDate="2004-04-04" EndDate="2004-10-31">-7</DaylightSaving>
		</TimeZone>
		<Other iso2="US" iso3="USA" StateCode="CA" Country="United States" GeoZone="NAM" Latitude="40.978117" Longitude="124.108619" />
	</Airport>
	<Airport>
		<Code>ACY</Code>
		<Name>Atlantic City Intl, NJ, United States</Name>
		<TimeZone>
			<StandardTime>-5</StandardTime>
			<DaylightSaving StartDate="2004-04-04" EndDate="2004-10-31">-4</DaylightSaving>
		</TimeZone>
		<Other iso2="US" iso3="USA" StateCode="NJ" Country="United States" GeoZone="NAM" Latitude="39.457583" Longitude="74.577167" />
	</Airport>
	<Airport>
		<Code>ACZ</Code>
		<Name>Zabol, Iran</Name>
		<TimeZone>
			<StandardTime>0</StandardTime>
		</TimeZone>
		<Other iso2="IR" iso3="IRN" StateCode="" Country="Iran" GeoZone="MEA" Latitude="31.098333" Longitude="-61.543889" />
	</Airport>
	<Airport>
		<Code>ADA</Code>
		<Name>Adana, Turkey</Name>
		<TimeZone>
			<StandardTime>2</StandardTime>
			<DaylightSaving StartDate="2004-03-28" EndDate="2004-10-31">3</DaylightSaving>
		</TimeZone>
		<Other iso2="TR" iso3="TUR" StateCode="" Country="Turkey" GeoZone="EUR" Latitude="36.982500" Longitude="-35.283056" />
	</Airport>
	<Airport>
		<Code>ADB</Code>
		<Name>Izmir, Turkey</Name>
		<TimeZone>
			<StandardTime>2</StandardTime>
			<DaylightSaving StartDate="2004-03-28" EndDate="2004-10-31">3</DaylightSaving>
		</TimeZone>
		<Other iso2="TR" iso3="TUR" StateCode="" Country="Turkey" GeoZone="EUR" Latitude="38.289167" Longitude="-27.155000" />
	</Airport>
	<Airport>
		<Code>ADD</Code>
		<Name>Addis Ababa, Ethiopia</Name>
		<TimeZone>
			<StandardTime>3</StandardTime>
		</TimeZone>
		<Other iso2="ET" iso3="ETH" StateCode="" Country="Ethiopia" GeoZone="AFR" Latitude="8.975042" Longitude="-38.799400" />
	</Airport>
	<Airport>
		<Code>ADE</Code>
		<Name>Aden, Yemen</Name>
		<TimeZone>
			<StandardTime>3</StandardTime>
		</TimeZone>
		<Other iso2="YE" iso3="YEM" StateCode="" Country="Yemen" GeoZone="MEA" Latitude="12.828889" Longitude="-45.029722" />
	</Airport>
	<Airport>
		<Code>ADF</Code>
		<Name>Adiyaman, Turkey</Name>
		<TimeZone>
			<StandardTime>0</StandardTime>
		</TimeZone>
		<Other iso2="TR" iso3="TUR" StateCode="" Country="Turkey" GeoZone="EUR" Latitude="37.730833" Longitude="-38.468889" />
	</Airport>
	<Airport>
		<Code>ADG</Code>
		<Name>Adrian Lenawee, United States</Name>
		<TimeZone>
			<StandardTime>0</StandardTime>
		</TimeZone>
		<Other iso2="US" iso3="USA" StateCode="MI" Country="United States" GeoZone="NAM" Latitude="41.869436" Longitude="84.074806" />
	</Airport>
	<Airport>
		<Code>ADH</Code>
		<Name>Aldan, </Name>
		<TimeZone>
			<StandardTime>3</StandardTime>
			<DaylightSaving StartDate="2004-03-28" EndDate="2004-10-31">4</DaylightSaving>
		</TimeZone>
	</Airport>
	<Airport>
		<Code>ADJ</Code>
		<Name>Amman Civil, Jordan</Name>
		<TimeZone>
			<StandardTime>2</StandardTime>
			<DaylightSaving StartDate="2004-03-26" EndDate="2004-10-29">3</DaylightSaving>
		</TimeZone>
		<Other iso2="JO" iso3="JOR" StateCode="" Country="Jordan" GeoZone="MEA" Latitude="31.972703" Longitude="-35.991572" />
	</Airport>
	<Airport>
		<Code>ADK</Code>
		<Name>Adak Island, AK, United States</Name>
		<TimeZone>
			<StandardTime>-10</StandardTime>
			<DaylightSaving StartDate="2004-04-04" EndDate="2004-10-31">-9</DaylightSaving>
		</TimeZone>
		<Other iso2="US" iso3="USA" StateCode="AK" Country="United States" GeoZone="NAM" Latitude="51.877964" Longitude="176.646031" />
	</Airport>
	<Airport>
		<Code>ADL</Code>
		<Name>Adelaide, Australia</Name>
		<TimeZone>
			<StandardTime>9:30</StandardTime>
			<DaylightSaving StartDate="2004-10-03" EndDate="2004-03-28">10:30</DaylightSaving>
		</TimeZone>
		<Other iso2="AU" iso3="AUS" StateCode="" Country="Australia" GeoZone="PAC" Latitude="-34.945000" Longitude="-138.530556" />
	</Airport>
	<Airport>
		<Code>ADM</Code>
		<Name>Ardmore Municipal, United States</Name>
		<TimeZone>
			<StandardTime>0</StandardTime>
		</TimeZone>
		<Other iso2="US" iso3="USA" StateCode="OK" Country="United States" GeoZone="NAM" Latitude="34.303206" Longitude="97.019522" />
	</Airport>
	<Airport>
		<Code>ADQ</Code>
		<Name>Kodiak, AK, United States</Name>
		<TimeZone>
			<StandardTime>-9</StandardTime>
			<DaylightSaving StartDate="2004-04-04" EndDate="2004-10-31">-8</DaylightSaving>
		</TimeZone>
		<Other iso2="US" iso3="USA" StateCode="AK" Country="United States" GeoZone="NAM" Latitude="57.749967" Longitude="152.493856" />
	</Airport>
	<Airport>
		<Code>ADR</Code>
		<Name>Andrews Swinnie, United States</Name>
		<TimeZone>
			<StandardTime>0</StandardTime>
		</TimeZone>
		<Other iso2="US" iso3="USA" StateCode="SC" Country="United States" GeoZone="NAM" Latitude="33.451694" Longitude="79.526200" />
	</Airport>
	<Airport>
		<Code>ADS</Code>
		<Name>Dallas Addison, United States</Name>
		<TimeZone>
			<StandardTime>0</StandardTime>
		</TimeZone>
		<Other iso2="US" iso3="USA" StateCode="TX" Country="United States" GeoZone="NAM" Latitude="32.968558" Longitude="96.836447" />
	</Airport>
	<Airport>
		<Code>ADT</Code>
		<Name>Ada, United States</Name>
		<TimeZone>
			<StandardTime>0</StandardTime>
		</TimeZone>
		<Other iso2="US" iso3="USA" StateCode="OK" Country="United States" GeoZone="NAM" Latitude="34.804342" Longitude="96.671278" />
	</Airport>
	<Airport>
		<Code>ADU</Code>
		<Name>Ardabil, Iran</Name>
		<TimeZone>
			<StandardTime>3:30</StandardTime>
			<DaylightSaving StartDate="2004-03-21" EndDate="2004-09-20">4:30</DaylightSaving>
		</TimeZone>
		<Other iso2="IR" iso3="IRN" StateCode="" Country="Iran" GeoZone="MEA" Latitude="38.326667" Longitude="-48.424167" />
	</Airport>
	<Airport>
		<Code>ADZ</Code>
		<Name>San Andres Island, Colombia</Name>
		<TimeZone>
			<StandardTime>-5</StandardTime>
		</TimeZone>
		<Other iso2="CO" iso3="COL" StateCode="" Country="Colombia" GeoZone="LAM" Latitude="12.583683" Longitude="81.710919" />
	</Airport>
	<Airport>
		<Code>AEA</Code>
		<Name>Abemama, </Name>
		<TimeZone>
			<StandardTime>12</StandardTime>
		</TimeZone>
	</Airport>
	<Airport>
		<Code>AED</Code>
		<Name>Aleneva, AK, </Name>
		<TimeZone>
			<StandardTime>-9</StandardTime>
			<DaylightSaving StartDate="2004-04-04" EndDate="2004-10-31">-8</DaylightSaving>
		</TimeZone>
	</Airport>
	<Airport>
		<Code>AEH</Code>
		<Name>Abeche, Chad</Name>
		<TimeZone>
			<StandardTime>0</StandardTime>
		</TimeZone>
		<Other iso2="TD" iso3="TCD" StateCode="" Country="Chad" GeoZone="AFR" Latitude="13.847222" Longitude="-20.848889" />
	</Airport>
	<Airport>
		<Code>AEL</Code>
		<Name>Albert Lea, United States</Name>
		<TimeZone>
			<StandardTime>0</StandardTime>
		</TimeZone>
		<Other iso2="US" iso3="USA" StateCode="MN" Country="United States" GeoZone="NAM" Latitude="43.681528" Longitude="93.367236" />
	</Airport>
	<Airport>
		<Code>AEO</Code>
		<Name>Aioun El Atrouss, Mauritania</Name>
		<TimeZone>
			<StandardTime>0</StandardTime>
		</TimeZone>
		<Other iso2="MR" iso3="MRT" StateCode="" Country="Mauritania" GeoZone="AFR" Latitude="16.716667" Longitude="9.633333" />
	</Airport>
	<Airport>
		<Code>AEP</Code>
		<Name>Buenos Aires-Jorge Newberry, Argentina</Name>
		<TimeZone>
			<StandardTime>-3</StandardTime>
		</TimeZone>
		<Other iso2="AR" iso3="ARG" StateCode="" Country="Argentina" GeoZone="LAM" Latitude="-34.558889" Longitude="58.416389" />
	</Airport>
	<Airport>
		<Code>AER</Code>
		<Name>Adler/Sochi, Russia</Name>
		<TimeZone>
			<StandardTime>3</StandardTime>
			<DaylightSaving StartDate="2004-03-28" EndDate="2004-10-31">4</DaylightSaving>
		</TimeZone>
		<Other iso2="RU" iso3="RUS" StateCode="" Country="Russia" GeoZone="EUR" Latitude="43.445000" Longitude="-39.948333" />
	</Airport>
	<Airport>
		<Code>AES</Code>
		<Name>Aalesund, Norway</Name>
		<TimeZone>
			<StandardTime>1</StandardTime>
			<DaylightSaving StartDate="2004-03-28" EndDate="2004-10-31">2</DaylightSaving>
		</TimeZone>
		<Other iso2="NO" iso3="NOR" StateCode="" Country="Norway" GeoZone="EUR" Latitude="62.562500" Longitude="-6.119722" />
	</Airport>
	<Airport>
		<Code>AET</Code>
		<Name>Allakaket, AK, United States</Name>
		<TimeZone>
			<StandardTime>-9</StandardTime>
			<DaylightSaving StartDate="2004-04-04" EndDate="2004-10-31">-8</DaylightSaving>
		</TimeZone>
		<Other iso2="US" iso3="USA" StateCode="AK" Country="United States" GeoZone="NAM" Latitude="66.551817" Longitude="152.622156" />
	</Airport>
	<Airport>
		<Code>AEU</Code>
		<Name>Abumusa Island, Iran</Name>
		<TimeZone>
			<StandardTime>0</StandardTime>
		</TimeZone>
		<Other iso2="IR" iso3="IRN" StateCode="" Country="Iran" GeoZone="MEA" Latitude="25.876111" Longitude="-55.031667" />
	</Airport>
	<Airport>
		<Code>AEX</Code>
		<Name>Alexandria, LA, United States</Name>
		<TimeZone>
			<StandardTime>-6</StandardTime>
			<DaylightSaving StartDate="2004-04-04" EndDate="2004-10-31">-5</DaylightSaving>
		</TimeZone>
		<Other iso2="US" iso3="USA" StateCode="LA" Country="United States" GeoZone="NAM" Latitude="31.327372" Longitude="92.548556" />
	</Airport>
	<Airport>
		<Code>AEY</Code>
		<Name>Akureyri, Iceland</Name>
		<TimeZone>
			<StandardTime>0</StandardTime>
		</TimeZone>
		<Other iso2="IS" iso3="ISL" StateCode="" Country="Iceland" GeoZone="EUR" Latitude="65.658611" Longitude="18.072222" />
	</Airport>
	<Airport>
		<Code>AFA</Code>
		<Name>San Rafael, Argentina</Name>
		<TimeZone>
			<StandardTime>-3</StandardTime>
		</TimeZone>
		<Other iso2="AR" iso3="ARG" StateCode="" Country="Argentina" GeoZone="LAM" Latitude="-34.596667" Longitude="68.390278" />
	</Airport>
	<Airport>
		<Code>AFL</Code>
		<Name>Alta Floresta, Brazil</Name>
		<TimeZone>
			<StandardTime>-4</StandardTime>
		</TimeZone>
		<Other iso2="BR" iso3="BRA" StateCode="" Country="Brazil" GeoZone="LAM" Latitude="-9.866389" Longitude="56.105000" />
	</Airport>
	<Airport>
		<Code>AFO</Code>
		<Name>Afton, United States</Name>
		<TimeZone>
			<StandardTime>0</StandardTime>
		</TimeZone>
		<Other iso2="US" iso3="USA" StateCode="WY" Country="United States" GeoZone="NAM" Latitude="42.711247" Longitude="110.942164" />
	</Airport>
	<Airport>
		<Code>AFW</Code>
		<Name>Ft Worth Alliance, United States</Name>
		<TimeZone>
			<StandardTime>0</StandardTime>
		</TimeZone>
		<Other iso2="US" iso3="USA" StateCode="TX" Country="United States" GeoZone="NAM" Latitude="32.987639" Longitude="97.318806" />
	</Airport>
	<Airport>
		<Code>AFZ</Code>
		<Name>Sabzevar, Iran</Name>
		<TimeZone>
			<StandardTime>0</StandardTime>
		</TimeZone>
		<Other iso2="IR" iso3="IRN" StateCode="" Country="Iran" GeoZone="MEA" Latitude="36.168611" Longitude="-57.596389" />
	</Airport>
	<Airport>
		<Code>AGA</Code>
		<Name>Agadir, Morocco</Name>
		<TimeZone>
			<StandardTime>0</StandardTime>
		</TimeZone>
		<Other iso2="MA" iso3="MAR" StateCode="" Country="Morocco" GeoZone="AFR" Latitude="30.325000" Longitude="9.413056" />
	</Airport>
	<Airport>
		<Code>AGB</Code>
		<Name>Augsburg, Germany</Name>
		<TimeZone>
			<StandardTime>1</StandardTime>
			<DaylightSaving StartDate="2004-03-28" EndDate="2004-10-31">2</DaylightSaving>
		</TimeZone>
		<Other iso2="DE" iso3="DEU" StateCode="" Country="Germany" GeoZone="EUR" Latitude="48.425158" Longitude="-10.931764" />
	</Airport>
	<Airport>
		<Code>AGC</Code>
		<Name>Pittsburgh Allegheny, United States</Name>
		<TimeZone>
			<StandardTime>0</StandardTime>
		</TimeZone>
		<Other iso2="US" iso3="USA" StateCode="PA" Country="United States" GeoZone="NAM" Latitude="40.354389" Longitude="79.930167" />
	</Airport>
	<Airport>
		<Code>AGE</Code>
		<Name>Wangerooge, </Name>
		<TimeZone>
			<StandardTime>1</StandardTime>
			<DaylightSaving StartDate="2004-03-28" EndDate="2004-10-31">2</DaylightSaving>
		</TimeZone>
	</Airport>
	<Airport>
		<Code>AGF</Code>
		<Name>Agen, France</Name>
		<TimeZone>
			<StandardTime>1</StandardTime>
			<DaylightSaving StartDate="2004-03-28" EndDate="2004-10-31">2</DaylightSaving>
		</TimeZone>
		<Other iso2="FR" iso3="FRA" StateCode="" Country="France" GeoZone="EUR" Latitude="44.174722" Longitude="-0.590556" />
	</Airport>
	<Airport>
		<Code>AGH</Code>
		<Name>Heisingborg, Sweden</Name>
		<TimeZone>
			<StandardTime>1</StandardTime>
			<DaylightSaving StartDate="2004-03-28" EndDate="2004-10-31">2</DaylightSaving>
		</TimeZone>
		<Other iso2="SE" iso3="SWE" StateCode="" Country="Sweden" GeoZone="EUR" Latitude="56.291111" Longitude="-12.855000" />
	</Airport>
	<Airport>
		<Code>AGJ</Code>
		<Name>Aguni, </Name>
		<TimeZone>
			<StandardTime>9</StandardTime>
		</TimeZone>
	</Airport>
	<Airport>
		<Code>AGL</Code>
		<Name>Wanigeta, </Name>
		<TimeZone>
			<StandardTime>10</StandardTime>
		</TimeZone>
	</Airport>
	<Airport>
		<Code>AGN</Code>
		<Name>Angoon, AK, </Name>
		<TimeZone>
			<StandardTime>-9</StandardTime>
			<DaylightSaving StartDate="2004-04-04" EndDate="2004-10-31">-8</DaylightSaving>
		</TimeZone>
	</Airport>
	<Airport>
		<Code>AGO</Code>
		<Name>Magnolia, United States</Name>
		<TimeZone>
			<StandardTime>0</StandardTime>
		</TimeZone>
		<Other iso2="US" iso3="USA" StateCode="AR" Country="United States" GeoZone="NAM" Latitude="33.228019" Longitude="93.216972" />
	</Airport>
	<Airport>
		<Code>AGP</Code>
		<Name>Malaga, Spain</Name>
		<TimeZone>
			<StandardTime>1</StandardTime>
			<DaylightSaving StartDate="2004-03-28" EndDate="2004-10-31">2</DaylightSaving>
		</TimeZone>
		<Other iso2="ES" iso3="ESP" StateCode="" Country="Spain" GeoZone="EUR" Latitude="36.674972" Longitude="4.499208" />
	</Airport>
	<Airport>
		<Code>AGR</Code>
		<Name>Agra, India</Name>
		<TimeZone>
			<StandardTime>5:30</StandardTime>
			<DaylightSaving StartDate="2004-03-28" EndDate="2004-10-31">6:30</DaylightSaving>
		</TimeZone>
		<Other iso2="IN" iso3="IND" StateCode="" Country="India" GeoZone="ASI" Latitude="27.155833" Longitude="-77.960833" />
	</Airport>
	<Airport>
		<Code>AGS</Code>
		<Name>Augusta, GA, United States</Name>
		<TimeZone>
			<StandardTime>-5</StandardTime>
			<DaylightSaving StartDate="2004-04-04" EndDate="2004-10-31">-4</DaylightSaving>
		</TimeZone>
		<Other iso2="US" iso3="USA" StateCode="GA" Country="United States" GeoZone="NAM" Latitude="33.369944" Longitude="81.964500" />
	</Airport>
	<Airport>
		<Code>AGT</Code>
		<Name>Ciudad Del Este, Paraguay</Name>
		<TimeZone>
			<StandardTime>-3</StandardTime>
			<DaylightSaving StartDate="2004-03-28" EndDate="2004-10-31">-2</DaylightSaving>
		</TimeZone>
		<Other iso2="PY" iso3="PRY" StateCode="" Country="Paraguay" GeoZone="LAM" Latitude="-25.455556" Longitude="54.843611" />
	</Airport>
	<Airport>
		<Code>AGU</Code>
		<Name>Aguascalientes, Mexico</Name>
		<TimeZone>
			<StandardTime>-6</StandardTime>
			<DaylightSaving StartDate="2004-04-04" EndDate="2004-10-31">-5</DaylightSaving>
		</TimeZone>
		<Other iso2="MX" iso3="MEX" StateCode="" Country="Mexico" GeoZone="CAM" Latitude="21.705486" Longitude="102.317897" />
	</Airport>
	<Airport>
		<Code>AGV</Code>
		<Name>Acarigua Oswaldo Guevara Mujica, Venezuela</Name>
		<TimeZone>
			<StandardTime>0</StandardTime>
		</TimeZone>
		<Other iso2="VE" iso3="VEN" StateCode="" Country="Venezuela" GeoZone="LAM" Latitude="9.550000" Longitude="69.233333" />
	</Airport>
	<Airport>
		<Code>AGX</Code>
		<Name>Agatti Island, </Name>
		<TimeZone>
			<StandardTime>5:30</StandardTime>
			<DaylightSaving StartDate="2004-03-28" EndDate="2004-10-31">6:30</DaylightSaving>
		</TimeZone>
	</Airport>
	<Airport>
		<Code>AHB</Code>
		<Name>Abha, Saudi Arabia</Name>
		<TimeZone>
			<StandardTime>0</StandardTime>
		</TimeZone>
		<Other iso2="SA" iso3="SAU" StateCode="" Country="Saudi Arabia" GeoZone="MEA" Latitude="18.240414" Longitude="-42.656508" />
	</Airport>
	<Airport>
		<Code>AHD</Code>
		<Name>Ardmore Downtown Executive, United States</Name>
		<TimeZone>
			<StandardTime>0</StandardTime>
		</TimeZone>
		<Other iso2="US" iso3="USA" StateCode="OK" Country="United States" GeoZone="NAM" Latitude="34.146989" Longitude="97.122653" />
	</Airport>
	<Airport>
		<Code>AHE</Code>
		<Name>Ahe Island, French Polynesia</Name>
		<TimeZone>
			<StandardTime>0</StandardTime>
		</TimeZone>
		<Other iso2="PF" iso3="PYF" StateCode="" Country="French Polynesia" GeoZone="PAC" Latitude="-14.427778" Longitude="146.255000" />
	</Airport>
	<Airport>
		<Code>AHF</Code>
		<Name>Arapahoe, United States</Name>
		<TimeZone>
			<StandardTime>0</StandardTime>
		</TimeZone>
		<Other iso2="US" iso3="USA" StateCode="NE" Country="United States" GeoZone="NAM" Latitude="40.339450" Longitude="99.906514" />
	</Airport>
	<Airport>
		<Code>AHH</Code>
		<Name>Amery, United States</Name>
		<TimeZone>
			<StandardTime>0</StandardTime>
		</TimeZone>
		<Other iso2="US" iso3="USA" StateCode="WI" Country="United States" GeoZone="NAM" Latitude="45.281147" Longitude="92.375392" />
	</Airport>
	<Airport>
		<Code>AHN</Code>
		<Name>Athens, GA, United States</Name>
		<TimeZone>
			<StandardTime>-5</StandardTime>
			<DaylightSaving StartDate="2004-04-04" EndDate="2004-10-31">-4</DaylightSaving>
		</TimeZone>
		<Other iso2="US" iso3="USA" StateCode="GA" Country="United States" GeoZone="NAM" Latitude="33.948594" Longitude="83.326347" />
	</Airport>
	<Airport>
		<Code>AHO</Code>
		<Name>Alghero, Italy</Name>
		<TimeZone>
			<StandardTime>1</StandardTime>
			<DaylightSaving StartDate="2004-03-28" EndDate="2004-10-31">2</DaylightSaving>
		</TimeZone>
		<Other iso2="IT" iso3="ITA" StateCode="" Country="Italy" GeoZone="EUR" Latitude="40.631219" Longitude="-8.288531" />
	</Airport>
	<Airport>
		<Code>AHS</Code>
		<Name>Ahuas, </Name>
		<TimeZone>
			<StandardTime>-6</StandardTime>
			<DaylightSaving StartDate="2004-03-28" EndDate="2004-10-31">-5</DaylightSaving>
		</TimeZone>
	</Airport>
	<Airport>
		<Code>AHU</Code>
		<Name>Al Hoceima, Morocco</Name>
		<TimeZone>
			<StandardTime>0</StandardTime>
		</TimeZone>
		<Other iso2="MA" iso3="MAR" StateCode="" Country="Morocco" GeoZone="AFR" Latitude="35.180556" Longitude="3.831667" />
	</Airport>
	<Airport>
		<Code>AHZ</Code>
		<Name>Alpe D Huez, </Name>
		<TimeZone>
			<StandardTime>1</StandardTime>
			<DaylightSaving StartDate="2004-03-28" EndDate="2004-10-31">2</DaylightSaving>
		</TimeZone>
	</Airport>
	<Airport>
		<Code>AIA</Code>
		<Name>Alliance, NE, United States</Name>
		<TimeZone>
			<StandardTime>-7</StandardTime>
			<DaylightSaving StartDate="2004-03-28" EndDate="2004-10-31">-6</DaylightSaving>
		</TimeZone>
		<Other iso2="US" iso3="USA" StateCode="NE" Country="United States" GeoZone="NAM" Latitude="42.053225" Longitude="102.803769" />
	</Airport>
	<Airport>
		<Code>AIC</Code>
		<Name>Airok, </Name>
		<TimeZone>
			<StandardTime>12</StandardTime>
		</TimeZone>
	</Airport>
	<Airport>
		<Code>AID</Code>
		<Name>Anderson Darlington, United States</Name>
		<TimeZone>
			<StandardTime>0</StandardTime>
		</TimeZone>
		<Other iso2="US" iso3="USA" StateCode="IN" Country="United States" GeoZone="NAM" Latitude="40.108622" Longitude="85.612994" />
	</Airport>
	<Airport>
		<Code>AIF</Code>
		<Name>Assis, Brazil</Name>
		<TimeZone>
			<StandardTime>0</StandardTime>
		</TimeZone>
		<Other iso2="BR" iso3="BRA" StateCode="" Country="Brazil" GeoZone="LAM" Latitude="-22.640000" Longitude="50.453056" />
	</Airport>
	<Airport>
		<Code>AIK</Code>
		<Name>Aiken, United States</Name>
		<TimeZone>
			<StandardTime>0</StandardTime>
		</TimeZone>
		<Other iso2="US" iso3="USA" StateCode="SC" Country="United States" GeoZone="NAM" Latitude="33.649378" Longitude="81.685036" />
	</Airport>
	<Airport>
		<Code>AIM</Code>
		<Name>Ailuk Island, </Name>
		<TimeZone>
			<StandardTime>12</StandardTime>
		</TimeZone>
	</Airport>
	<Airport>
		<Code>AIN</Code>
		<Name>Wainwright, AK, United States</Name>
		<TimeZone>
			<StandardTime>-9</StandardTime>
			<DaylightSaving StartDate="2004-04-04" EndDate="2004-10-31">-8</DaylightSaving>
		</TimeZone>
		<Other iso2="US" iso3="USA" StateCode="AK" Country="United States" GeoZone="NAM" Latitude="70.638000" Longitude="159.994750" />
	</Airport>
	<Airport>
		<Code>AIO</Code>
		<Name>Atlantic, United States</Name>
		<TimeZone>
			<StandardTime>0</StandardTime>
		</TimeZone>
		<Other iso2="US" iso3="USA" StateCode="IA" Country="United States" GeoZone="NAM" Latitude="41.407267" Longitude="95.046906" />
	</Airport>
	<Airport>
		<Code>AIS</Code>
		<Name>Arorae Island, </Name>
		<TimeZone>
			<StandardTime>12</StandardTime>
		</TimeZone>
	</Airport>
	<Airport>
		<Code>AIT</Code>
		<Name>Aitutaki, Cook Islands</Name>
		<TimeZone>
			<StandardTime>-10</StandardTime>
			<DaylightSaving StartDate="2004-03-28" EndDate="2004-10-31">-9</DaylightSaving>
		</TimeZone>
		<Other iso2="CK" iso3="COK" StateCode="" Country="Cook Islands" GeoZone="PAC" Latitude="-18.830056" Longitude="159.764883" />
	</Airport>
	<Airport>
		<Code>AIU</Code>
		<Name>Atiu Enua, Cook Islands</Name>
		<TimeZone>
			<StandardTime>0</StandardTime>
		</TimeZone>
		<Other iso2="CK" iso3="COK" StateCode="" Country="Cook Islands" GeoZone="PAC" Latitude="-19.966667" Longitude="158.125000" />
	</Airport>
	<Airport>
		<Code>AIV</Code>
		<Name>Aliceville Downer, United States</Name>
		<TimeZone>
			<StandardTime>0</StandardTime>
		</TimeZone>
		<Other iso2="US" iso3="USA" StateCode="AL" Country="United States" GeoZone="NAM" Latitude="33.106467" Longitude="88.197792" />
	</Airport>
	<Airport>
		<Code>AIY</Code>
		<Name>Atlantic City, NJ, United States</Name>
		<TimeZone>
			<StandardTime>-5</StandardTime>
			<DaylightSaving StartDate="2004-04-04" EndDate="2004-10-31">-4</DaylightSaving>
		</TimeZone>
		<Other iso2="US" iso3="USA" StateCode="NJ" Country="United States" GeoZone="NAM" Latitude="39.360028" Longitude="74.456083" />
	</Airport>
	<Airport>
		<Code>AIZ</Code>
		<Name>Kaiser Lake Ozark Fine, United States</Name>
		<TimeZone>
			<StandardTime>0</StandardTime>
		</TimeZone>
		<Other iso2="US" iso3="USA" StateCode="MO" Country="United States" GeoZone="NAM" Latitude="38.096036" Longitude="92.549486" />
	</Airport>
	<Airport>
		<Code>AJA</Code>
		<Name>Alaccio, France</Name>
		<TimeZone>
			<StandardTime>1</StandardTime>
			<DaylightSaving StartDate="2004-03-28" EndDate="2004-10-31">2</DaylightSaving>
		</TimeZone>
		<Other iso2="FR" iso3="FRA" StateCode="" Country="France" GeoZone="EUR" Latitude="41.923889" Longitude="-8.802500" />
	</Airport>
	<Airport>
		<Code>AJF</Code>
		<Name>Jouf, Saudi Arabia</Name>
		<TimeZone>
			<StandardTime>3</StandardTime>
			<DaylightSaving StartDate="2004-03-28" EndDate="2004-10-31">4</DaylightSaving>
		</TimeZone>
		<Other iso2="SA" iso3="SAU" StateCode="" Country="Saudi Arabia" GeoZone="MEA" Latitude="29.784858" Longitude="-40.101561" />
	</Airport>
	<Airport>
		<Code>AJI</Code>
		<Name>Agri, Turkey</Name>
		<TimeZone>
			<StandardTime>0</StandardTime>
		</TimeZone>
		<Other iso2="TR" iso3="TUR" StateCode="" Country="Turkey" GeoZone="EUR" Latitude="39.662667" Longitude="-43.023250" />
	</Airport>
	<Airport>
		<Code>AJK</Code>
		<Name>Arak, Iran</Name>
		<TimeZone>
			<StandardTime>0</StandardTime>
		</TimeZone>
		<Other iso2="IR" iso3="IRN" StateCode="" Country="Iran" GeoZone="MEA" Latitude="34.136944" Longitude="-49.841944" />
	</Airport>
	<Airport>
		<Code>AJL</Code>
		<Name>Aizwal Turial, India</Name>
		<TimeZone>
			<StandardTime>0</StandardTime>
		</TimeZone>
		<Other iso2="IN" iso3="IND" StateCode="" Country="India" GeoZone="ASI" Latitude="23.745889" Longitude="-92.802944" />
	</Airport>
	<Airport>
		<Code>AJN</Code>
		<Name>Anjouan Ouani, Comoros</Name>
		<TimeZone>
			<StandardTime>0</StandardTime>
		</TimeZone>
		<Other iso2="KM" iso3="COM" StateCode="" Country="Comoros" GeoZone="AFR" Latitude="-12.130961" Longitude="-44.429647" />
	</Airport>
	<Airport>
		<Code>AJR</Code>
		<Name>Arvidsjaur, Sweden</Name>
		<TimeZone>
			<StandardTime>1</StandardTime>
			<DaylightSaving StartDate="2004-03-28" EndDate="2004-10-31">2</DaylightSaving>
		</TimeZone>
		<Other iso2="SE" iso3="SWE" StateCode="" Country="Sweden" GeoZone="EUR" Latitude="65.590278" Longitude="-19.281944" />
	</Airport>
	<Airport>
		<Code>AJU</Code>
		<Name>Aracaju, Brazil</Name>
		<TimeZone>
			<StandardTime>-3</StandardTime>
		</TimeZone>
		<Other iso2="BR" iso3="BRA" StateCode="" Country="Brazil" GeoZone="LAM" Latitude="-10.985278" Longitude="37.073333" />
	</Airport>
	<Airport>
		<Code>AJY</Code>
		<Name>Agades Manu Dayak, Niger</Name>
		<TimeZone>
			<StandardTime>0</StandardTime>
		</TimeZone>
		<Other iso2="NE" iso3="NER" StateCode="" Country="Niger" GeoZone="AFR" Latitude="16.962306" Longitude="-7.990389" />
	</Airport>
	<Airport>
		<Code>AKA</Code>
		<Name>Ankang, </Name>
		<TimeZone>
			<StandardTime>8</StandardTime>
			<DaylightSaving StartDate="2004-03-28" EndDate="2004-10-31">9</DaylightSaving>
		</TimeZone>
	</Airport>
	<Airport>
		<Code>AKB</Code>
		<Name>Atka, AK, United States</Name>
		<TimeZone>
			<StandardTime>-10</StandardTime>
			<DaylightSaving StartDate="2004-03-28" EndDate="2004-10-31">-9</DaylightSaving>
		</TimeZone>
		<Other iso2="US" iso3="USA" StateCode="AK" Country="United States" GeoZone="NAM" Latitude="52.220347" Longitude="174.206350" />
	</Airport>
	<Airport>
		<Code>AKD</Code>
		<Name>Akola, India</Name>
		<TimeZone>
			<StandardTime>0</StandardTime>
		</TimeZone>
		<Other iso2="IN" iso3="IND" StateCode="" Country="India" GeoZone="ASI" Latitude="20.698556" Longitude="-77.057694" />
	</Airport>
	<Airport>
		<Code>AKE</Code>
		<Name>Akieni, </Name>
		<TimeZone>
			<StandardTime>1</StandardTime>
		</TimeZone>
	</Airport>
	<Airport>
		<Code>AKF</Code>
		<Name>Kufrah, Libya</Name>
		<TimeZone>
			<StandardTime>0</StandardTime>
		</TimeZone>
		<Other iso2="LY" iso3="LBY" StateCode="" Country="Libya" GeoZone="AFR" Latitude="24.176944" Longitude="-23.315278" />
	</Airport>
	<Airport>
		<Code>AKG</Code>
		<Name>Anguganak, </Name>
		<TimeZone>
			<StandardTime>10</StandardTime>
		</TimeZone>
	</Airport>
	<Airport>
		<Code>AKI</Code>
		<Name>Akiak, AK, United States</Name>
		<TimeZone>
			<StandardTime>-9</StandardTime>
			<DaylightSaving StartDate="2004-03-28" EndDate="2004-10-31">-8</DaylightSaving>
		</TimeZone>
		<Other iso2="US" iso3="USA" StateCode="AK" Country="United States" GeoZone="NAM" Latitude="60.902889" Longitude="161.230583" />
	</Airport>
	<Airport>
		<Code>AKJ</Code>
		<Name>Asahikawa, Japan</Name>
		<TimeZone>
			<StandardTime>9</StandardTime>
		</TimeZone>
		<Other iso2="JP" iso3="JPN" StateCode="" Country="Japan" GeoZone="ASI" Latitude="43.670833" Longitude="-142.447500" />
	</Airport>
	<Airport>
		<Code>AKK</Code>
		<Name>Akhiok, AK, United States</Name>
		<TimeZone>
			<StandardTime>-9</StandardTime>
			<DaylightSaving StartDate="2004-03-28" EndDate="2004-10-31">-8</DaylightSaving>
		</TimeZone>
		<Other iso2="US" iso3="USA" StateCode="AK" Country="United States" GeoZone="NAM" Latitude="56.938692" Longitude="154.182556" />
	</Airport>
	<Airport>
		<Code>AKL</Code>
		<Name>Auckland, New Zealand</Name>
		<TimeZone>
			<StandardTime>12</StandardTime>
			<DaylightSaving StartDate="2004-10-03" EndDate="2004-03-21">13</DaylightSaving>
		</TimeZone>
		<Other iso2="NZ" iso3="NZL" StateCode="" Country="New Zealand" GeoZone="PAC" Latitude="-37.008056" Longitude="-174.791667" />
	</Airport>
	<Airport>
		<Code>AKN</Code>
		<Name>King Salmon, AK, United States</Name>
		<TimeZone>
			<StandardTime>-9</StandardTime>
			<DaylightSaving StartDate="2004-03-28" EndDate="2004-10-31">-8</DaylightSaving>
		</TimeZone>
		<Other iso2="US" iso3="USA" StateCode="AK" Country="United States" GeoZone="NAM" Latitude="58.676803" Longitude="156.649217" />
	</Airport>
	<Airport>
		<Code>AKO</Code>
		<Name>Akron Colorado Plains, United States</Name>
		<TimeZone>
			<StandardTime>0</StandardTime>
		</TimeZone>
		<Other iso2="US" iso3="USA" StateCode="CO" Country="United States" GeoZone="NAM" Latitude="40.175633" Longitude="103.222028" />
	</Airport>
	<Airport>
		<Code>AKP</Code>
		<Name>Anaktuvuk Pass, AK, United States</Name>
		<TimeZone>
			<StandardTime>-9</StandardTime>
			<DaylightSaving StartDate="2004-04-04" EndDate="2004-10-31">-8</DaylightSaving>
		</TimeZone>
		<Other iso2="US" iso3="USA" StateCode="AK" Country="United States" GeoZone="NAM" Latitude="68.133597" Longitude="151.743342" />
	</Airport>
	<Airport>
		<Code>AKR</Code>
		<Name>Akure, Nigeria</Name>
		<TimeZone>
			<StandardTime>0</StandardTime>
		</TimeZone>
		<Other iso2="NG" iso3="NGA" StateCode="" Country="Nigeria" GeoZone="AFR" Latitude="7.250556" Longitude="-5.303333" />
	</Airport>
	<Airport>
		<Code>AKS</Code>
		<Name>Auki, Solomon Islands</Name>
		<TimeZone>
			<StandardTime>11</StandardTime>
		</TimeZone>
		<Other iso2="SB" iso3="SLB" StateCode="" Country="Solomon Islands" GeoZone="PAC" Latitude="-8.702686" Longitude="-160.681697" />
	</Airport>
	<Airport>
		<Code>AKU</Code>
		<Name>Aksu, </Name>
		<TimeZone>
			<StandardTime>8</StandardTime>
		</TimeZone>
	</Airport>
	<Airport>
		<Code>AKV</Code>
		<Name>Akulivik, QC, Canada</Name>
		<TimeZone>
			<StandardTime>-5</StandardTime>
			<DaylightSaving StartDate="2004-04-04" EndDate="2004-10-31">-4</DaylightSaving>
		</TimeZone>
		<Other iso2="CA" iso3="CAN" StateCode="QC" Country="Canada" GeoZone="NAM" Latitude="60.818611" Longitude="78.148611" />
	</Airport>
	<Airport>
		<Code>AKW</Code>
		<Name>Aghajari, Iran</Name>
		<TimeZone>
			<StandardTime>0</StandardTime>
		</TimeZone>
		<Other iso2="IR" iso3="IRN" StateCode="" Country="Iran" GeoZone="MEA" Latitude="30.750000" Longitude="-49.683333" />
	</Airport>
	<Airport>
		<Code>AKX</Code>
		<Name>Aktyubinsk, Kazakhstan</Name>
		<TimeZone>
			<StandardTime>5</StandardTime>
			<DaylightSaving StartDate="2004-03-28" EndDate="2004-10-30">6</DaylightSaving>
		</TimeZone>
		<Other iso2="KZ" iso3="KAZ" StateCode="" Country="Kazakhstan" GeoZone="ASI" Latitude="50.245556" Longitude="-57.207222" />
	</Airport>
	<Airport>
		<Code>AKY</Code>
		<Name>Sittwe, Myanmar</Name>
		<TimeZone>
			<StandardTime>6:30</StandardTime>
			<DaylightSaving StartDate="2004-03-28" EndDate="2004-10-31">7:30</DaylightSaving>
		</TimeZone>
		<Other iso2="MM" iso3="MMR" StateCode="" Country="Myanmar" GeoZone="ASI" Latitude="20.131944" Longitude="-92.879167" />
	</Airport>
	<Airport>
		<Code>ALA</Code>
		<Name>Almaty, Kazakhstan</Name>
		<TimeZone>
			<StandardTime>6</StandardTime>
			<DaylightSaving StartDate="2004-03-28" EndDate="2004-10-30">7</DaylightSaving>
		</TimeZone>
		<Other iso2="KZ" iso3="KAZ" StateCode="" Country="Kazakhstan" GeoZone="ASI" Latitude="43.351944" Longitude="-77.040556" />
	</Airport>
	<Airport>
		<Code>ALB</Code>
		<Name>Albany, NY, United States</Name>
		<TimeZone>
			<StandardTime>-5</StandardTime>
			<DaylightSaving StartDate="2004-03-28" EndDate="2004-10-31">-4</DaylightSaving>
		</TimeZone>
		<Other iso2="US" iso3="USA" StateCode="NY" Country="United States" GeoZone="NAM" Latitude="42.748267" Longitude="73.801692" />
	</Airport>
	<Airport>
		<Code>ALC</Code>
		<Name>Alicante, Spain</Name>
		<TimeZone>
			<StandardTime>1</StandardTime>
			<DaylightSaving StartDate="2004-03-28" EndDate="2004-10-31">2</DaylightSaving>
		</TimeZone>
		<Other iso2="ES" iso3="ESP" StateCode="" Country="Spain" GeoZone="EUR" Latitude="38.282169" Longitude="0.558156" />
	</Airport>
	<Airport>
		<Code>ALE</Code>
		<Name>Alpine Casparis, United States</Name>
		<TimeZone>
			<StandardTime>0</StandardTime>
		</TimeZone>
		<Other iso2="US" iso3="USA" StateCode="TX" Country="United States" GeoZone="NAM" Latitude="30.384222" Longitude="103.683583" />
	</Airport>
	<Airport>
		<Code>ALF</Code>
		<Name>Alta, Norway</Name>
		<TimeZone>
			<StandardTime>1</StandardTime>
			<DaylightSaving StartDate="2004-03-28" EndDate="2004-10-31">2</DaylightSaving>
		</TimeZone>
		<Other iso2="NO" iso3="NOR" StateCode="" Country="Norway" GeoZone="EUR" Latitude="69.976111" Longitude="-23.371667" />
	</Airport>
	<Airport>
		<Code>ALG</Code>
		<Name>Algiers, Algeria</Name>
		<TimeZone>
			<StandardTime>1</StandardTime>
			<DaylightSaving StartDate="2004-03-28" EndDate="2004-10-31">2</DaylightSaving>
		</TimeZone>
		<Other iso2="DZ" iso3="DZA" StateCode="" Country="Algeria" GeoZone="AFR" Latitude="36.694444" Longitude="-3.217778" />
	</Airport>
	<Airport>
		<Code>ALH</Code>
		<Name>Albany, Australia</Name>
		<TimeZone>
			<StandardTime>8</StandardTime>
		</TimeZone>
		<Other iso2="AU" iso3="AUS" StateCode="" Country="Australia" GeoZone="PAC" Latitude="-34.943333" Longitude="-117.808889" />
	</Airport>
	<Airport>
		<Code>ALI</Code>
		<Name>Alice, United States</Name>
		<TimeZone>
			<StandardTime>0</StandardTime>
		</TimeZone>
		<Other iso2="US" iso3="USA" StateCode="TX" Country="United States" GeoZone="NAM" Latitude="27.740889" Longitude="98.026944" />
	</Airport>
	<Airport>
		<Code>ALJ</Code>
		<Name>Alexander Bay, </Name>
		<TimeZone>
			<StandardTime>1</StandardTime>
			<DaylightSaving StartDate="2004-09-05" EndDate="2004-04-04">2</DaylightSaving>
		</TimeZone>
	</Airport>
	<Airport>
		<Code>ALL</Code>
		<Name>Albenga, Italy</Name>
		<TimeZone>
			<StandardTime>0</StandardTime>
		</TimeZone>
		<Other iso2="IT" iso3="ITA" StateCode="" Country="Italy" GeoZone="EUR" Latitude="44.045689" Longitude="-8.125331" />
	</Airport>
	<Airport>
		<Code>ALM</Code>
		<Name>Alamogordo, NM, United States</Name>
		<TimeZone>
			<StandardTime>-7</StandardTime>
			<DaylightSaving StartDate="2004-03-28" EndDate="2004-10-31">-6</DaylightSaving>
		</TimeZone>
		<Other iso2="US" iso3="USA" StateCode="NM" Country="United States" GeoZone="NAM" Latitude="32.839944" Longitude="105.990583" />
	</Airport>
	<Airport>
		<Code>ALN</Code>
		<Name>Alton St Louis, United States</Name>
		<TimeZone>
			<StandardTime>0</StandardTime>
		</TimeZone>
		<Other iso2="US" iso3="USA" StateCode="IL" Country="United States" GeoZone="NAM" Latitude="38.890297" Longitude="90.046050" />
	</Airport>
	<Airport>
		<Code>ALO</Code>
		<Name>Waterloo, IA, United States</Name>
		<TimeZone>
			<StandardTime>-6</StandardTime>
			<DaylightSaving StartDate="2004-04-04" EndDate="2004-10-31">-5</DaylightSaving>
		</TimeZone>
		<Other iso2="US" iso3="USA" StateCode="IA" Country="United States" GeoZone="NAM" Latitude="42.557081" Longitude="92.400344" />
	</Airport>
	<Airport>
		<Code>ALP</Code>
		<Name>Aleppo, Syria</Name>
		<TimeZone>
			<StandardTime>2</StandardTime>
			<DaylightSaving StartDate="2004-04-01" EndDate="2004-10-31">3</DaylightSaving>
		</TimeZone>
		<Other iso2="SY" iso3="SYR" StateCode="" Country="Syria" GeoZone="MEA" Latitude="36.180486" Longitude="-37.226756" />
	</Airport>
	<Airport>
		<Code>ALR</Code>
		<Name>Alexandra, New Zealand</Name>
		<TimeZone>
			<StandardTime>0</StandardTime>
		</TimeZone>
		<Other iso2="NZ" iso3="NZL" StateCode="" Country="New Zealand" GeoZone="PAC" Latitude="-45.211667" Longitude="-169.373333" />
	</Airport>
	<Airport>
		<Code>ALS</Code>
		<Name>Alamosa, CO, United States</Name>
		<TimeZone>
			<StandardTime>-7</StandardTime>
			<DaylightSaving StartDate="2004-03-28" EndDate="2004-10-31">-6</DaylightSaving>
		</TimeZone>
		<Other iso2="US" iso3="USA" StateCode="CO" Country="United States" GeoZone="NAM" Latitude="37.434917" Longitude="105.866556" />
	</Airport>
	<Airport>
		<Code>ALW</Code>
		<Name>Walla Walla, WA, United States</Name>
		<TimeZone>
			<StandardTime>-8</StandardTime>
			<DaylightSaving StartDate="2004-04-04" EndDate="2004-10-31">-7</DaylightSaving>
		</TimeZone>
		<Other iso2="US" iso3="USA" StateCode="WA" Country="United States" GeoZone="NAM" Latitude="46.094892" Longitude="118.287875" />
	</Airport>
	<Airport>
		<Code>ALX</Code>
		<Name>Alexander City Russell, United States</Name>
		<TimeZone>
			<StandardTime>0</StandardTime>
		</TimeZone>
		<Other iso2="US" iso3="USA" StateCode="AL" Country="United States" GeoZone="NAM" Latitude="32.914753" Longitude="85.962956" />
	</Airport>
	<Airport>
		<Code>ALY</Code>
		<Name>Alexandria, Egypt</Name>
		<TimeZone>
			<StandardTime>2</StandardTime>
			<DaylightSaving StartDate="2004-03-28" EndDate="2004-10-31">3</DaylightSaving>
		</TimeZone>
		<Other iso2="EG" iso3="EGY" StateCode="" Country="Egypt" GeoZone="AFR" Latitude="31.181667" Longitude="-29.946389" />
	</Airport>
	<Airport>
		<Code>ALZ</Code>
		<Name>Alitak, AK, </Name>
		<TimeZone>
			<StandardTime>-9</StandardTime>
			<DaylightSaving StartDate="2004-04-04" EndDate="2004-10-31">-8</DaylightSaving>
		</TimeZone>
	</Airport>
	<Airport>
		<Code>AMA</Code>
		<Name>Amarillo, TX, United States</Name>
		<TimeZone>
			<StandardTime>-6</StandardTime>
			<DaylightSaving StartDate="2004-03-28" EndDate="2004-10-31">-5</DaylightSaving>
		</TimeZone>
		<Other iso2="US" iso3="USA" StateCode="TX" Country="United States" GeoZone="NAM" Latitude="35.219369" Longitude="101.705931" />
	</Airport>
	<Airport>
		<Code>AMB</Code>
		<Name>Ambilobe, Madagascar</Name>
		<TimeZone>
			<StandardTime>0</StandardTime>
		</TimeZone>
		<Other iso2="MG" iso3="MDG" StateCode="" Country="Madagascar" GeoZone="AFR" Latitude="-13.183333" Longitude="-48.983333" />
	</Airport>
	<Airport>
		<Code>AMD</Code>
		<Name>Ahmedabad, India</Name>
		<TimeZone>
			<StandardTime>5:30</StandardTime>
		</TimeZone>
		<Other iso2="IN" iso3="IND" StateCode="" Country="India" GeoZone="ASI" Latitude="23.071194" Longitude="-72.626417" />
	</Airport>
	<Airport>
		<Code>AMG</Code>
		<Name>Ambolin, </Name>
		<TimeZone>
			<StandardTime>10</StandardTime>
		</TimeZone>
	</Airport>
	<Airport>
		<Code>AMH</Code>
		<Name>Arba Mintch, Ethiopia</Name>
		<TimeZone>
			<StandardTime>3</StandardTime>
			<DaylightSaving StartDate="2004-03-28" EndDate="2004-10-31">4</DaylightSaving>
		</TimeZone>
		<Other iso2="ET" iso3="ETH" StateCode="" Country="Ethiopia" GeoZone="AFR" Latitude="6.039436" Longitude="-37.590781" />
	</Airport>
	<Airport>
		<Code>AMI</Code>
		<Name>Mataram, Indonesia</Name>
		<TimeZone>
			<StandardTime>8</StandardTime>
			<DaylightSaving StartDate="2004-03-28" EndDate="2004-10-31">9</DaylightSaving>
		</TimeZone>
		<Other iso2="ID" iso3="IDN" StateCode="" Country="Indonesia" GeoZone="ASI" Latitude="-8.561944" Longitude="-116.099444" />
	</Airport>
	<Airport>
		<Code>AMJ</Code>
		<Name>Almenara, Brazil</Name>
		<TimeZone>
			<StandardTime>0</StandardTime>
		</TimeZone>
		<Other iso2="BR" iso3="BRA" StateCode="" Country="Brazil" GeoZone="LAM" Latitude="-16.183889" Longitude="40.667222" />
	</Airport>
	<Airport>
		<Code>AMK</Code>
		<Name>Durango Animas, United States</Name>
		<TimeZone>
			<StandardTime>0</StandardTime>
		</TimeZone>
		<Other iso2="US" iso3="USA" StateCode="CO" Country="United States" GeoZone="NAM" Latitude="37.203178" Longitude="107.869194" />
	</Airport>
	<Airport>
		<Code>AMM</Code>
		<Name>Amman, Jordan</Name>
		<TimeZone>
			<StandardTime>2</StandardTime>
			<DaylightSaving StartDate="2004-03-26" EndDate="2004-10-29">3</DaylightSaving>
		</TimeZone>
		<Other iso2="JO" iso3="JOR" StateCode="" Country="Jordan" GeoZone="MEA" Latitude="31.722558" Longitude="-35.993214" />
	</Airport>
	<Airport>
		<Code>AMN</Code>
		<Name>Alma Gratiot Community, United States</Name>
		<TimeZone>
			<StandardTime>0</StandardTime>
		</TimeZone>
		<Other iso2="US" iso3="USA" StateCode="MI" Country="United States" GeoZone="NAM" Latitude="43.322142" Longitude="84.687950" />
	</Airport>
	<Airport>
		<Code>AMO</Code>
		<Name>Mao, </Name>
		<TimeZone>
			<StandardTime>1</StandardTime>
		</TimeZone>
	</Airport>
	<Airport>
		<Code>AMQ</Code>
		<Name>Ambon Pattimura, Indonesia</Name>
		<TimeZone>
			<StandardTime>0</StandardTime>
		</TimeZone>
		<Other iso2="ID" iso3="IDN" StateCode="" Country="Indonesia" GeoZone="ASI" Latitude="-3.706944" Longitude="-128.089722" />
	</Airport>
	<Airport>
		<Code>AMS</Code>
		<Name>Amsterdam, Netherlands</Name>
		<TimeZone>
			<StandardTime>1</StandardTime>
			<DaylightSaving StartDate="2004-03-28" EndDate="2004-10-31">2</DaylightSaving>
		</TimeZone>
		<Other iso2="NL" iso3="NLD" StateCode="" Country="Netherlands" GeoZone="EUR" Latitude="52.308056" Longitude="-4.764167" />
	</Airport>
	<Airport>
		<Code>AMV</Code>
		<Name>Amderma, </Name>
		<TimeZone>
			<StandardTime>3</StandardTime>
			<DaylightSaving StartDate="2004-03-28" EndDate="2004-10-31">4</DaylightSaving>
		</TimeZone>
	</Airport>
	<Airport>
		<Code>AMW</Code>
		<Name>Ames, United States</Name>
		<TimeZone>
			<StandardTime>0</StandardTime>
		</TimeZone>
		<Other iso2="US" iso3="USA" StateCode="IA" Country="United States" GeoZone="NAM" Latitude="41.992044" Longitude="93.621822" />
	</Airport>
	<Airport>
		<Code>AMY</Code>
		<Name>Ambatomainty, </Name>
		<TimeZone>
			<StandardTime>3</StandardTime>
		</TimeZone>
	</Airport>
	<Airport>
		<Code>ANB</Code>
		<Name>Anniston Metro, United States</Name>
		<TimeZone>
			<StandardTime>0</StandardTime>
		</TimeZone>
		<Other iso2="US" iso3="USA" StateCode="AL" Country="United States" GeoZone="NAM" Latitude="33.588167" Longitude="85.858111" />
	</Airport>
	<Airport>
		<Code>ANC</Code>
		<Name>Anchorage, AK, United States</Name>
		<TimeZone>
			<StandardTime>-9</StandardTime>
			<DaylightSaving StartDate="2004-04-04" EndDate="2004-10-31">-8</DaylightSaving>
		</TimeZone>
		<Other iso2="US" iso3="USA" StateCode="AK" Country="United States" GeoZone="NAM" Latitude="61.174361" Longitude="149.996361" />
	</Airport>
	<Airport>
		<Code>AND</Code>
		<Name>Anderson, United States</Name>
		<TimeZone>
			<StandardTime>0</StandardTime>
		</TimeZone>
		<Other iso2="US" iso3="USA" StateCode="SC" Country="United States" GeoZone="NAM" Latitude="34.494944" Longitude="82.709028" />
	</Airport>
	<Airport>
		<Code>ANE</Code>
		<Name>Marce, France</Name>
		<TimeZone>
			<StandardTime>1</StandardTime>
			<DaylightSaving StartDate="2004-03-28" EndDate="2004-10-31">2</DaylightSaving>
		</TimeZone>
		<Other iso2="FR" iso3="FRA" StateCode="" Country="France" GeoZone="EUR" Latitude="47.560278" Longitude="0.312222" />
	</Airport>
	<Airport>
		<Code>ANF</Code>
		<Name>Antofagasta, Chile</Name>
		<TimeZone>
			<StandardTime>-4</StandardTime>
			<DaylightSaving StartDate="2004-03-28" EndDate="2004-10-31">-3</DaylightSaving>
		</TimeZone>
		<Other iso2="CL" iso3="CHL" StateCode="" Country="Chile" GeoZone="LAM" Latitude="-23.444444" Longitude="70.445000" />
	</Airport>
	<Airport>
		<Code>ANG</Code>
		<Name>Angouleme, France</Name>
		<TimeZone>
			<StandardTime>1</StandardTime>
			<DaylightSaving StartDate="2004-03-28" EndDate="2004-10-31">2</DaylightSaving>
		</TimeZone>
		<Other iso2="FR" iso3="FRA" StateCode="" Country="France" GeoZone="EUR" Latitude="45.729475" Longitude="-0.219153" />
	</Airport>
	<Airport>
		<Code>ANI</Code>
		<Name>Aniak, AK, United States</Name>
		<TimeZone>
			<StandardTime>-9</StandardTime>
			<DaylightSaving StartDate="2004-03-28" EndDate="2004-10-31">-8</DaylightSaving>
		</TimeZone>
		<Other iso2="US" iso3="USA" StateCode="AK" Country="United States" GeoZone="NAM" Latitude="61.581586" Longitude="159.543047" />
	</Airport>
	<Airport>
		<Code>ANJ</Code>
		<Name>Zanaga, </Name>
		<TimeZone>
			<StandardTime>1</StandardTime>
		</TimeZone>
	</Airport>
	<Airport>
		<Code>ANK</Code>
		<Name>Ankara, </Name>
		<TimeZone>
			<StandardTime>2</StandardTime>
			<DaylightSaving StartDate="2004-03-28" EndDate="2004-10-31">3</DaylightSaving>
		</TimeZone>
	</Airport>
	<Airport>
		<Code>ANM</Code>
		<Name>Antalaha, Madagascar</Name>
		<TimeZone>
			<StandardTime>3</StandardTime>
			<DaylightSaving StartDate="2004-03-28" EndDate="2004-10-31">4</DaylightSaving>
		</TimeZone>
		<Other iso2="MG" iso3="MDG" StateCode="" Country="Madagascar" GeoZone="AFR" Latitude="-15.000000" Longitude="-50.316667" />
	</Airport>
	<Airport>
		<Code>ANQ</Code>
		<Name>Angola Tri State Steuben, United States</Name>
		<TimeZone>
			<StandardTime>0</StandardTime>
		</TimeZone>
		<Other iso2="US" iso3="USA" StateCode="IN" Country="United States" GeoZone="NAM" Latitude="41.639697" Longitude="85.083494" />
	</Airport>
	<Airport>
		<Code>ANR</Code>
		<Name>Antwerp, Belgium</Name>
		<TimeZone>
			<StandardTime>1</StandardTime>
			<DaylightSaving StartDate="2004-03-28" EndDate="2004-10-31">2</DaylightSaving>
		</TimeZone>
		<Other iso2="BE" iso3="BEL" StateCode="" Country="Belgium" GeoZone="EUR" Latitude="51.189444" Longitude="-4.460278" />
	</Airport>
	<Airport>
		<Code>ANS</Code>
		<Name>Andahuaylas, Peru</Name>
		<TimeZone>
			<StandardTime>0</StandardTime>
		</TimeZone>
		<Other iso2="PE" iso3="PER" StateCode="" Country="Peru" GeoZone="LAM" Latitude="-13.704167" Longitude="73.348056" />
	</Airport>
	<Airport>
		<Code>ANU</Code>
		<Name>Antigua, Antigua and Barbuda</Name>
		<TimeZone>
			<StandardTime>-4</StandardTime>
			<DaylightSaving StartDate="2004-03-28" EndDate="2004-10-31">-3</DaylightSaving>
		</TimeZone>
		<Other iso2="AG" iso3="ATG" StateCode="" Country="Antigua and Barbuda" GeoZone="CAB" Latitude="17.136667" Longitude="61.792778" />
	</Airport>
	<Airport>
		<Code>ANV</Code>
		<Name>Anvik, AK, United States</Name>
		<TimeZone>
			<StandardTime>-9</StandardTime>
			<DaylightSaving StartDate="2004-04-04" EndDate="2004-10-31">-8</DaylightSaving>
		</TimeZone>
		<Other iso2="US" iso3="USA" StateCode="AK" Country="United States" GeoZone="NAM" Latitude="62.646733" Longitude="160.190658" />
	</Airport>
	<Airport>
		<Code>ANW</Code>
		<Name>Ainsworth, United States</Name>
		<TimeZone>
			<StandardTime>0</StandardTime>
		</TimeZone>
		<Other iso2="US" iso3="USA" StateCode="NE" Country="United States" GeoZone="NAM" Latitude="42.579222" Longitude="99.992972" />
	</Airport>
	<Airport>
		<Code>ANX</Code>
		<Name>Andenes, Norway</Name>
		<TimeZone>
			<StandardTime>1</StandardTime>
			<DaylightSaving StartDate="2004-03-28" EndDate="2004-10-31">2</DaylightSaving>
		</TimeZone>
		<Other iso2="NO" iso3="NOR" StateCode="" Country="Norway" GeoZone="EUR" Latitude="69.292500" Longitude="-16.144167" />
	</Airport>
	<Airport>
		<Code>ANY</Code>
		<Name>Anthony, United States</Name>
		<TimeZone>
			<StandardTime>0</StandardTime>
		</TimeZone>
		<Other iso2="US" iso3="USA" StateCode="KS" Country="United States" GeoZone="NAM" Latitude="37.158522" Longitude="98.079647" />
	</Airport>
	<Airport>
		<Code>AOC</Code>
		<Name>Altenburg Nobitz, Germany</Name>
		<TimeZone>
			<StandardTime>0</StandardTime>
		</TimeZone>
		<Other iso2="DE" iso3="DEU" StateCode="" Country="Germany" GeoZone="EUR" Latitude="50.981817" Longitude="-12.506361" />
	</Airport>
	<Airport>
		<Code>AOH</Code>
		<Name>Lima Allen, United States</Name>
		<TimeZone>
			<StandardTime>0</StandardTime>
		</TimeZone>
		<Other iso2="US" iso3="USA" StateCode="OH" Country="United States" GeoZone="NAM" Latitude="40.706944" Longitude="84.026667" />
	</Airport>
	<Airport>
		<Code>AOI</Code>
		<Name>Ancona, Italy</Name>
		<TimeZone>
			<StandardTime>1</StandardTime>
			<DaylightSaving StartDate="2004-03-28" EndDate="2004-10-31">2</DaylightSaving>
		</TimeZone>
		<Other iso2="IT" iso3="ITA" StateCode="" Country="Italy" GeoZone="EUR" Latitude="43.616667" Longitude="-13.360278" />
	</Airport>
	<Airport>
		<Code>AOJ</Code>
		<Name>Aomori, Japan</Name>
		<TimeZone>
			<StandardTime>9</StandardTime>
		</TimeZone>
		<Other iso2="JP" iso3="JPN" StateCode="" Country="Japan" GeoZone="ASI" Latitude="40.734722" Longitude="-140.690833" />
	</Airport>
	<Airport>
		<Code>AOK</Code>
		<Name>Karpathos, Greece</Name>
		<TimeZone>
			<StandardTime>2</StandardTime>
			<DaylightSaving StartDate="2004-03-28" EndDate="2004-10-31">3</DaylightSaving>
		</TimeZone>
		<Other iso2="GR" iso3="GRC" StateCode="" Country="Greece" GeoZone="EUR" Latitude="35.416667" Longitude="-27.150000" />
	</Airport>
	<Airport>
		<Code>AOL</Code>
		<Name>Paso De Los Libres, Argentina</Name>
		<TimeZone>
			<StandardTime>0</StandardTime>
		</TimeZone>
		<Other iso2="AR" iso3="ARG" StateCode="" Country="Argentina" GeoZone="LAM" Latitude="-29.689444" Longitude="57.152222" />
	</Airport>
	<Airport>
		<Code>AOO</Code>
		<Name>Altoona, PA, United States</Name>
		<TimeZone>
			<StandardTime>-5</StandardTime>
			<DaylightSaving StartDate="2004-04-04" EndDate="2004-10-31">-4</DaylightSaving>
		</TimeZone>
		<Other iso2="US" iso3="USA" StateCode="PA" Country="United States" GeoZone="NAM" Latitude="40.296383" Longitude="78.320014" />
	</Airport>
	<Airport>
		<Code>AOR</Code>
		<Name>AtorSetar, Malaysia</Name>
		<TimeZone>
			<StandardTime>8</StandardTime>
			<DaylightSaving StartDate="2004-03-28" EndDate="2004-10-31">9</DaylightSaving>
		</TimeZone>
		<Other iso2="MY" iso3="MYS" StateCode="" Country="Malaysia" GeoZone="ASI" Latitude="6.194722" Longitude="-100.404167" />
	</Airport>
	<Airport>
		<Code>AOS</Code>
		<Name>Amook, AK, </Name>
		<TimeZone>
			<StandardTime>-9</StandardTime>
			<DaylightSaving StartDate="2004-03-28" EndDate="2004-10-31">-8</DaylightSaving>
		</TimeZone>
	</Airport>
	<Airport>
		<Code>AOT</Code>
		<Name>Aosta, Italy</Name>
		<TimeZone>
			<StandardTime>0</StandardTime>
		</TimeZone>
		<Other iso2="IT" iso3="ITA" StateCode="" Country="Italy" GeoZone="EUR" Latitude="45.738611" Longitude="-7.362500" />
	</Airport>
	<Airport>
		<Code>AOU</Code>
		<Name>Attopeu, </Name>
		<TimeZone>
			<StandardTime>7</StandardTime>
		</TimeZone>
	</Airport>
	<Airport>
		<Code>APA</Code>
		<Name>Denver Centennial, United States</Name>
		<TimeZone>
			<StandardTime>0</StandardTime>
		</TimeZone>
		<Other iso2="US" iso3="USA" StateCode="CO" Country="United States" GeoZone="NAM" Latitude="39.570128" Longitude="104.849294" />
	</Airport>
	<Airport>
		<Code>APC</Code>
		<Name>Napa, United States</Name>
		<TimeZone>
			<StandardTime>0</StandardTime>
		</TimeZone>
		<Other iso2="US" iso3="USA" StateCode="CA" Country="United States" GeoZone="NAM" Latitude="38.213194" Longitude="122.280694" />
	</Airport>
	<Airport>
		<Code>APF</Code>
		<Name>Naples, FL, United States</Name>
		<TimeZone>
			<StandardTime>-5</StandardTime>
			<DaylightSaving StartDate="2004-04-04" EndDate="2004-10-31">-4</DaylightSaving>
		</TimeZone>
		<Other iso2="US" iso3="USA" StateCode="FL" Country="United States" GeoZone="NAM" Latitude="26.152769" Longitude="81.775128" />
	</Airport>
	<Airport>
		<Code>APK</Code>
		<Name>Apataki, French Polynesia</Name>
		<TimeZone>
			<StandardTime>0</StandardTime>
		</TimeZone>
		<Other iso2="PF" iso3="PYF" StateCode="" Country="French Polynesia" GeoZone="PAC" Latitude="-15.573611" Longitude="146.415278" />
	</Airport>
	<Airport>
		<Code>APL</Code>
		<Name>Nampula, Mozambique</Name>
		<TimeZone>
			<StandardTime>2</StandardTime>
			<DaylightSaving StartDate="2004-03-28" EndDate="2004-10-31">3</DaylightSaving>
		</TimeZone>
		<Other iso2="MZ" iso3="MOZ" StateCode="" Country="Mozambique" GeoZone="AFR" Latitude="-15.100000" Longitude="-39.283333" />
	</Airport>
	<Airport>
		<Code>APN</Code>
		<Name>Alpena, MI, United States</Name>
		<TimeZone>
			<StandardTime>-5</StandardTime>
			<DaylightSaving StartDate="2004-04-04" EndDate="2004-10-31">-4</DaylightSaving>
		</TimeZone>
		<Other iso2="US" iso3="USA" StateCode="MI" Country="United States" GeoZone="NAM" Latitude="45.078067" Longitude="83.560314" />
	</Airport>
	<Airport>
		<Code>APO</Code>
		<Name>Apartado, </Name>
		<TimeZone>
			<StandardTime>-5</StandardTime>
		</TimeZone>
	</Airport>
	<Airport>
		<Code>APP</Code>
		<Name>Asapa, </Name>
		<TimeZone>
			<StandardTime>10</StandardTime>
		</TimeZone>
	</Airport>
	<Airport>
		<Code>APQ</Code>
		<Name>Arapiraca, Brazil</Name>
		<TimeZone>
			<StandardTime>0</StandardTime>
		</TimeZone>
		<Other iso2="BR" iso3="BRA" StateCode="" Country="Brazil" GeoZone="LAM" Latitude="-9.776389" Longitude="36.628333" />
	</Airport>
	<Airport>
		<Code>APS</Code>
		<Name>Anapolis, Brazil</Name>
		<TimeZone>
			<StandardTime>0</StandardTime>
		</TimeZone>
		<Other iso2="BR" iso3="BRA" StateCode="" Country="Brazil" GeoZone="LAM" Latitude="-16.362500" Longitude="48.928056" />
	</Airport>
	<Airport>
		<Code>APT</Code>
		<Name>Jasper Marion Brown, United States</Name>
		<TimeZone>
			<StandardTime>0</StandardTime>
		</TimeZone>
		<Other iso2="US" iso3="USA" StateCode="TN" Country="United States" GeoZone="NAM" Latitude="35.060678" Longitude="85.585317" />
	</Airport>
	<Airport>
		<Code>APU</Code>
		<Name>Apucarana, Brazil</Name>
		<TimeZone>
			<StandardTime>-3</StandardTime>
			<DaylightSaving StartDate="2004-11-07" EndDate="2005-02-13">-2</DaylightSaving>
		</TimeZone>
		<Other iso2="BR" iso3="BRA" StateCode="" Country="Brazil" GeoZone="LAM" Latitude="-23.612222" Longitude="51.385000" />
	</Airport>
	<Airport>
		<Code>APV</Code>
		<Name>Apple Valley, United States</Name>
		<TimeZone>
			<StandardTime>0</StandardTime>
		</TimeZone>
		<Other iso2="US" iso3="USA" StateCode="CA" Country="United States" GeoZone="NAM" Latitude="34.575333" Longitude="117.186194" />
	</Airport>
	<Airport>
		<Code>APW</Code>
		<Name>Apia, Samoa</Name>
		<TimeZone>
			<StandardTime>-11</StandardTime>
		</TimeZone>
		<Other iso2="WS" iso3="WSM" StateCode="" Country="Samoa" GeoZone="PAC" Latitude="-13.829667" Longitude="171.997167" />
	</Airport>
	<Airport>
		<Code>APX</Code>
		<Name>Arapongas, Brazil</Name>
		<TimeZone>
			<StandardTime>0</StandardTime>
		</TimeZone>
		<Other iso2="BR" iso3="BRA" StateCode="" Country="Brazil" GeoZone="LAM" Latitude="-23.352778" Longitude="51.475278" />
	</Airport>
	<Airport>
		<Code>APZ</Code>
		<Name>Zapala, Argentina</Name>
		<TimeZone>
			<StandardTime>0</StandardTime>
		</TimeZone>
		<Other iso2="AR" iso3="ARG" StateCode="" Country="Argentina" GeoZone="LAM" Latitude="-38.966667" Longitude="70.116667" />
	</Airport>
	<Airport>
		<Code>AQA</Code>
		<Name>Araraquara, Brazil</Name>
		<TimeZone>
			<StandardTime>0</StandardTime>
		</TimeZone>
		<Other iso2="BR" iso3="BRA" StateCode="" Country="Brazil" GeoZone="LAM" Latitude="-21.804347" Longitude="48.140233" />
	</Airport>
	<Airport>
		<Code>AQG</Code>
		<Name>Anqing, China</Name>
		<TimeZone>
			<StandardTime>8</StandardTime>
		</TimeZone>
		<Other iso2="CN" iso3="CHN" StateCode="" Country="China" GeoZone="ASI" Latitude="30.582222" Longitude="-117.050278" />
	</Airport>
	<Airport>
		<Code>AQI</Code>
		<Name>Qaisumah, Saudi Arabia</Name>
		<TimeZone>
			<StandardTime>3</StandardTime>
		</TimeZone>
		<Other iso2="SA" iso3="SAU" StateCode="" Country="Saudi Arabia" GeoZone="MEA" Latitude="28.335233" Longitude="-46.124931" />
	</Airport>
	<Airport>
		<Code>AQJ</Code>
		<Name>Aqaba, Jordan</Name>
		<TimeZone>
			<StandardTime>2</StandardTime>
			<DaylightSaving StartDate="2004-03-26" EndDate="2004-10-29">3</DaylightSaving>
		</TimeZone>
		<Other iso2="JO" iso3="JOR" StateCode="" Country="Jordan" GeoZone="MEA" Latitude="29.611619" Longitude="-35.018067" />
	</Airport>
	<Airport>
		<Code>AQP</Code>
		<Name>Arequipa, Peru</Name>
		<TimeZone>
			<StandardTime>-5</StandardTime>
		</TimeZone>
		<Other iso2="PE" iso3="PER" StateCode="" Country="Peru" GeoZone="LAM" Latitude="-16.340469" Longitude="71.572883" />
	</Airport>
	<Airport>
		<Code>ARA</Code>
		<Name>New Iberia Acadiana, United States</Name>
		<TimeZone>
			<StandardTime>0</StandardTime>
		</TimeZone>
		<Other iso2="US" iso3="USA" StateCode="LA" Country="United States" GeoZone="NAM" Latitude="30.037758" Longitude="91.883897" />
	</Airport>
	<Airport>
		<Code>ARB</Code>
		<Name>Ann Arbor, United States</Name>
		<TimeZone>
			<StandardTime>0</StandardTime>
		</TimeZone>
		<Other iso2="US" iso3="USA" StateCode="MI" Country="United States" GeoZone="NAM" Latitude="42.222983" Longitude="83.745608" />
	</Airport>
	<Airport>
		<Code>ARC</Code>
		<Name>Arctic Village, AK, United States</Name>
		<TimeZone>
			<StandardTime>-9</StandardTime>
			<DaylightSaving StartDate="2004-04-04" EndDate="2004-10-31">-8</DaylightSaving>
		</TimeZone>
		<Other iso2="US" iso3="USA" StateCode="AK" Country="United States" GeoZone="NAM" Latitude="68.114669" Longitude="145.579417" />
	</Airport>
	<Airport>
		<Code>ARE</Code>
		<Name>Arecibo Antonio Nery Juarbe Pol, Puerto Rico</Name>
		<TimeZone>
			<StandardTime>0</StandardTime>
		</TimeZone>
		<Other iso2="PR" iso3="PRI" StateCode="" Country="Puerto Rico" GeoZone="CAB" Latitude="18.451111" Longitude="66.675556" />
	</Airport>
	<Airport>
		<Code>ARG</Code>
		<Name>Walnut Ridge, United States</Name>
		<TimeZone>
			<StandardTime>0</StandardTime>
		</TimeZone>
		<Other iso2="US" iso3="USA" StateCode="AR" Country="United States" GeoZone="NAM" Latitude="36.125347" Longitude="90.924619" />
	</Airport>
	<Airport>
		<Code>ARH</Code>
		<Name>Arkhangelsk, Russia</Name>
		<TimeZone>
			<StandardTime>3</StandardTime>
			<DaylightSaving StartDate="2004-03-28" EndDate="2004-10-31">4</DaylightSaving>
		</TimeZone>
		<Other iso2="RU" iso3="RUS" StateCode="" Country="Russia" GeoZone="EUR" Latitude="64.600000" Longitude="-40.718333" />
	</Airport>
	<Airport>
		<Code>ARI</Code>
		<Name>Arica, Chile</Name>
		<TimeZone>
			<StandardTime>-5</StandardTime>
			<DaylightSaving StartDate="2004-10-10" EndDate="2004-03-14">-4</DaylightSaving>
		</TimeZone>
		<Other iso2="CL" iso3="CHL" StateCode="" Country="Chile" GeoZone="LAM" Latitude="-18.348611" Longitude="70.338611" />
	</Airport>
	<Airport>
		<Code>ARK</Code>
		<Name>Arusha, Tanzania</Name>
		<TimeZone>
			<StandardTime>0</StandardTime>
		</TimeZone>
		<Other iso2="TZ" iso3="TZA" StateCode="" Country="Tanzania" GeoZone="AFR" Latitude="-3.367794" Longitude="-36.620408" />
	</Airport>
	<Airport>
		<Code>ARM</Code>
		<Name>Armidale, Australia</Name>
		<TimeZone>
			<StandardTime>10</StandardTime>
			<DaylightSaving StartDate="2004-10-03" EndDate="2004-03-28">11</DaylightSaving>
		</TimeZone>
		<Other iso2="AU" iso3="AUS" StateCode="" Country="Australia" GeoZone="PAC" Latitude="-30.528056" Longitude="-151.617222" />
	</Airport>
	<Airport>
		<Code>ARN</Code>
		<Name>Stockholm-Arlanda, Sweden</Name>
		<TimeZone>
			<StandardTime>1</StandardTime>
			<DaylightSaving StartDate="2004-03-28" EndDate="2004-10-31">2</DaylightSaving>
		</TimeZone>
		<Other iso2="SE" iso3="SWE" StateCode="" Country="Sweden" GeoZone="EUR" Latitude="59.651944" Longitude="-17.918611" />
	</Airport>
	<Airport>
		<Code>ARP</Code>
		<Name>Aragip, </Name>
		<TimeZone>
			<StandardTime>10</StandardTime>
		</TimeZone>
	</Airport>
	<Airport>
		<Code>ARS</Code>
		<Name>Aragarcas, Brazil</Name>
		<TimeZone>
			<StandardTime>0</StandardTime>
		</TimeZone>
		<Other iso2="BR" iso3="BRA" StateCode="" Country="Brazil" GeoZone="LAM" Latitude="-15.899444" Longitude="52.240833" />
	</Airport>
	<Airport>
		<Code>ART</Code>
		<Name>Watertown, NY, United States</Name>
		<TimeZone>
			<StandardTime>-5</StandardTime>
			<DaylightSaving StartDate="2004-04-04" EndDate="2004-10-31">-4</DaylightSaving>
		</TimeZone>
		<Other iso2="US" iso3="USA" StateCode="NY" Country="United States" GeoZone="NAM" Latitude="43.991922" Longitude="76.021739" />
	</Airport>
	<Airport>
		<Code>ARU</Code>
		<Name>Aracatuba, Brazil</Name>
		<TimeZone>
			<StandardTime>-3</StandardTime>
			<DaylightSaving StartDate="2004-11-07" EndDate="2005-02-13">-2</DaylightSaving>
		</TimeZone>
		<Other iso2="BR" iso3="BRA" StateCode="" Country="Brazil" GeoZone="LAM" Latitude="-21.144167" Longitude="50.426389" />
	</Airport>
	<Airport>
		<Code>ARV</Code>
		<Name>Minocqua Woodruff Lakeland Lee, United States</Name>
		<TimeZone>
			<StandardTime>0</StandardTime>
		</TimeZone>
		<Other iso2="US" iso3="USA" StateCode="WI" Country="United States" GeoZone="NAM" Latitude="45.927925" Longitude="89.730942" />
	</Airport>
	<Airport>
		<Code>ARW</Code>
		<Name>Arad, Romania</Name>
		<TimeZone>
			<StandardTime>2</StandardTime>
			<DaylightSaving StartDate="2004-03-28" EndDate="2004-10-30">3</DaylightSaving>
		</TimeZone>
		<Other iso2="RO" iso3="ROU" StateCode="" Country="Romania" GeoZone="EUR" Latitude="46.176550" Longitude="-21.262022" />
	</Airport>
	<Airport>
		<Code>ARY</Code>
		<Name>Ararat, Australia</Name>
		<TimeZone>
			<StandardTime>0</StandardTime>
		</TimeZone>
		<Other iso2="AU" iso3="AUS" StateCode="" Country="Australia" GeoZone="PAC" Latitude="-37.309444" Longitude="-142.988611" />
	</Airport>
	<Airport>
		<Code>ARZ</Code>
		<Name>Nzeto, </Name>
		<TimeZone>
			<StandardTime>1</StandardTime>
		</TimeZone>
	</Airport>
	<Airport>
		<Code>ASA</Code>
		<Name>Assab, Eritrea</Name>
		<TimeZone>
			<StandardTime>3</StandardTime>
		</TimeZone>
		<Other iso2="ER" iso3="ERI" StateCode="" Country="Eritrea" GeoZone="AFR" Latitude="13.066667" Longitude="-42.633333" />
	</Airport>
	<Airport>
		<Code>ASB</Code>
		<Name>Ashkhabad, Turkmenistan</Name>
		<TimeZone>
			<StandardTime>5</StandardTime>
		</TimeZone>
		<Other iso2="TM" iso3="TKM" StateCode="" Country="Turkmenistan" GeoZone="ASI" Latitude="37.991667" Longitude="-58.363333" />
	</Airport>
	<Airport>
		<Code>ASD</Code>
		<Name>Andros Town, Bahamas</Name>
		<TimeZone>
			<StandardTime>-5</StandardTime>
			<DaylightSaving StartDate="2004-04-04" EndDate="2004-10-31">-4</DaylightSaving>
		</TimeZone>
		<Other iso2="BS" iso3="BHS" StateCode="" Country="Bahamas" GeoZone="CAB" Latitude="24.700000" Longitude="77.800000" />
	</Airport>
	<Airport>
		<Code>ASE</Code>
		<Name>Aspen, CO, United States</Name>
		<TimeZone>
			<StandardTime>-7</StandardTime>
			<DaylightSaving StartDate="2004-04-04" EndDate="2004-10-31">-6</DaylightSaving>
		</TimeZone>
		<Other iso2="US" iso3="USA" StateCode="CO" Country="United States" GeoZone="NAM" Latitude="39.223167" Longitude="106.868861" />
	</Airport>
	<Airport>
		<Code>ASF</Code>
		<Name>Astrakhan, Russia</Name>
		<TimeZone>
			<StandardTime>3</StandardTime>
			<DaylightSaving StartDate="2004-03-28" EndDate="2004-10-31">4</DaylightSaving>
		</TimeZone>
		<Other iso2="RU" iso3="RUS" StateCode="" Country="Russia" GeoZone="EUR" Latitude="46.283333" Longitude="-48.005000" />
	</Airport>
	<Airport>
		<Code>ASH</Code>
		<Name>Nashua Boire, United States</Name>
		<TimeZone>
			<StandardTime>0</StandardTime>
		</TimeZone>
		<Other iso2="US" iso3="USA" StateCode="NH" Country="United States" GeoZone="NAM" Latitude="42.781750" Longitude="71.514778" />
	</Airport>
	<Airport>
		<Code>ASI</Code>
		<Name>Ascension Island Ascension Aux, Saint Helena</Name>
		<TimeZone>
			<StandardTime>0</StandardTime>
		</TimeZone>
		<Other iso2="SH" iso3="SHN" StateCode="" Country="Saint Helena" GeoZone="AFR" Latitude="-7.969667" Longitude="14.393667" />
	</Airport>
	<Airport>
		<Code>ASJ</Code>
		<Name>Amami O Shima, Japan</Name>
		<TimeZone>
			<StandardTime>9</StandardTime>
		</TimeZone>
		<Other iso2="JP" iso3="JPN" StateCode="" Country="Japan" GeoZone="ASI" Latitude="28.430833" Longitude="-129.712500" />
	</Airport>
	<Airport>
		<Code>ASK</Code>
		<Name>Yamoussoukro, Ivory Coast</Name>
		<TimeZone>
			<StandardTime>0</StandardTime>
		</TimeZone>
		<Other iso2="CI" iso3="CIV" StateCode="" Country="Ivory Coast" GeoZone="AFR" Latitude="6.905833" Longitude="5.363889" />
	</Airport>
	<Airport>
		<Code>ASL</Code>
		<Name>Marshall Harrison, United States</Name>
		<TimeZone>
			<StandardTime>0</StandardTime>
		</TimeZone>
		<Other iso2="US" iso3="USA" StateCode="TX" Country="United States" GeoZone="NAM" Latitude="32.520500" Longitude="94.307778" />
	</Airport>
	<Airport>
		<Code>ASM</Code>
		<Name>Asmara, Eritrea</Name>
		<TimeZone>
			<StandardTime>3</StandardTime>
		</TimeZone>
		<Other iso2="ER" iso3="ERI" StateCode="" Country="Eritrea" GeoZone="AFR" Latitude="15.285000" Longitude="-38.901667" />
	</Airport>
	<Airport>
		<Code>ASN</Code>
		<Name>Talladega, United States</Name>
		<TimeZone>
			<StandardTime>0</StandardTime>
		</TimeZone>
		<Other iso2="US" iso3="USA" StateCode="AL" Country="United States" GeoZone="NAM" Latitude="33.569917" Longitude="86.050856" />
	</Airport>
	<Airport>
		<Code>ASO</Code>
		<Name>Asosa, Ethiopia</Name>
		<TimeZone>
			<StandardTime>3</StandardTime>
		</TimeZone>
		<Other iso2="ET" iso3="ETH" StateCode="" Country="Ethiopia" GeoZone="AFR" Latitude="10.020639" Longitude="-34.578889" />
	</Airport>
	<Airport>
		<Code>ASP</Code>
		<Name>Alice Springs, Australia</Name>
		<TimeZone>
			<StandardTime>9:30</StandardTime>
		</TimeZone>
		<Other iso2="AU" iso3="AUS" StateCode="" Country="Australia" GeoZone="PAC" Latitude="-23.806944" Longitude="-133.902222" />
	</Airport>
	<Airport>
		<Code>ASQ</Code>
		<Name>Austin, United States</Name>
		<TimeZone>
			<StandardTime>0</StandardTime>
		</TimeZone>
		<Other iso2="US" iso3="USA" StateCode="NV" Country="United States" GeoZone="NAM" Latitude="39.467981" Longitude="117.195372" />
	</Airport>
	<Airport>
		<Code>ASR</Code>
		<Name>Kayseri, Turkey</Name>
		<TimeZone>
			<StandardTime>2</StandardTime>
			<DaylightSaving StartDate="2004-03-28" EndDate="2004-10-31">3</DaylightSaving>
		</TimeZone>
		<Other iso2="TR" iso3="TUR" StateCode="" Country="Turkey" GeoZone="EUR" Latitude="38.770278" Longitude="-35.495278" />
	</Airport>
	<Airport>
		<Code>AST</Code>
		<Name>Astoria, OR, United States</Name>
		<TimeZone>
			<StandardTime>-8</StandardTime>
			<DaylightSaving StartDate="2004-04-04" EndDate="2004-10-31">-7</DaylightSaving>
		</TimeZone>
		<Other iso2="US" iso3="USA" StateCode="OR" Country="United States" GeoZone="NAM" Latitude="46.157972" Longitude="123.878694" />
	</Airport>
	<Airport>
		<Code>ASU</Code>
		<Name>Asuncion, Paraguay</Name>
		<TimeZone>
			<StandardTime>-4</StandardTime>
			<DaylightSaving StartDate="2004-09-05" EndDate="2004-04-04">-3</DaylightSaving>
		</TimeZone>
		<Other iso2="PY" iso3="PRY" StateCode="" Country="Paraguay" GeoZone="LAM" Latitude="-25.241092" Longitude="57.516828" />
	</Airport>
	<Airport>
		<Code>ASV</Code>
		<Name>Ambosell, Kenya</Name>
		<TimeZone>
			<StandardTime>3</StandardTime>
		</TimeZone>
		<Other iso2="KE" iso3="KEN" StateCode="" Country="Kenya" GeoZone="AFR" Latitude="-2.635833" Longitude="-37.250833" />
	</Airport>
	<Airport>
		<Code>ASW</Code>
		<Name>Aswan, Egypt</Name>
		<TimeZone>
			<StandardTime>2</StandardTime>
			<DaylightSaving StartDate="2004-03-28" EndDate="2004-10-31">3</DaylightSaving>
		</TimeZone>
		<Other iso2="EG" iso3="EGY" StateCode="" Country="Egypt" GeoZone="AFR" Latitude="23.964356" Longitude="-32.819975" />
	</Airport>
	<Airport>
		<Code>ASX</Code>
		<Name>Ashland Kennedy, United States</Name>
		<TimeZone>
			<StandardTime>0</StandardTime>
		</TimeZone>
		<Other iso2="US" iso3="USA" StateCode="WI" Country="United States" GeoZone="NAM" Latitude="46.548528" Longitude="90.918967" />
	</Airport>
	<Airport>
		<Code>ASY</Code>
		<Name>Ashley, United States</Name>
		<TimeZone>
			<StandardTime>0</StandardTime>
		</TimeZone>
		<Other iso2="US" iso3="USA" StateCode="ND" Country="United States" GeoZone="NAM" Latitude="46.023864" Longitude="99.352614" />
	</Airport>
	<Airport>
		<Code>ATA</Code>
		<Name>Anta Arias Grazzi, Peru</Name>
		<TimeZone>
			<StandardTime>0</StandardTime>
		</TimeZone>
		<Other iso2="PE" iso3="PER" StateCode="" Country="Peru" GeoZone="LAM" Latitude="-9.347500" Longitude="77.598333" />
	</Airport>
	<Airport>
		<Code>ATB</Code>
		<Name>Atbara, Sudan</Name>
		<TimeZone>
			<StandardTime>0</StandardTime>
		</TimeZone>
		<Other iso2="SD" iso3="SDN" StateCode="" Country="Sudan" GeoZone="AFR" Latitude="17.709653" Longitude="-34.057353" />
	</Airport>
	<Airport>
		<Code>ATC</Code>
		<Name>Arthurs Town, Bahamas</Name>
		<TimeZone>
			<StandardTime>-5</StandardTime>
			<DaylightSaving StartDate="2004-03-28" EndDate="2004-10-31">-4</DaylightSaving>
		</TimeZone>
		<Other iso2="BS" iso3="BHS" StateCode="" Country="Bahamas" GeoZone="CAB" Latitude="24.633333" Longitude="75.666667" />
	</Airport>
	<Airport>
		<Code>ATD</Code>
		<Name>Atoifi, Solomon Islands</Name>
		<TimeZone>
			<StandardTime>0</StandardTime>
		</TimeZone>
		<Other iso2="SB" iso3="SLB" StateCode="" Country="Solomon Islands" GeoZone="PAC" Latitude="-8.873333" Longitude="-161.011500" />
	</Airport>
	<Airport>
		<Code>ATE</Code>
		<Name>Antlers, United States</Name>
		<TimeZone>
			<StandardTime>0</StandardTime>
		</TimeZone>
		<Other iso2="US" iso3="USA" StateCode="OK" Country="United States" GeoZone="NAM" Latitude="34.192600" Longitude="95.649858" />
	</Airport>
	<Airport>
		<Code>ATF</Code>
		<Name>Ambato Chachoan, Ecuador</Name>
		<TimeZone>
			<StandardTime>0</StandardTime>
		</TimeZone>
		<Other iso2="EC" iso3="ECU" StateCode="" Country="Ecuador" GeoZone="LAM" Latitude="-1.211944" Longitude="78.574722" />
	</Airport>
	<Airport>
		<Code>ATH</Code>
		<Name>Athens, Greece</Name>
		<TimeZone>
			<StandardTime>2</StandardTime>
			<DaylightSaving StartDate="2004-03-28" EndDate="2004-10-31">3</DaylightSaving>
		</TimeZone>
		<Other iso2="GR" iso3="GRC" StateCode="" Country="Greece" GeoZone="EUR" Latitude="37.936700" Longitude="-23.944500" />
	</Airport>
	<Airport>
		<Code>ATI</Code>
		<Name>Artigas, Uruguay</Name>
		<TimeZone>
			<StandardTime>0</StandardTime>
		</TimeZone>
		<Other iso2="UY" iso3="URY" StateCode="" Country="Uruguay" GeoZone="LAM" Latitude="-30.399167" Longitude="56.510833" />
	</Airport>
	<Airport>
		<Code>ATK</Code>
		<Name>Atqasuk, AK, United States</Name>
		<TimeZone>
			<StandardTime>-9</StandardTime>
			<DaylightSaving StartDate="2004-04-04" EndDate="2004-10-31">-8</DaylightSaving>
		</TimeZone>
		<Other iso2="US" iso3="USA" StateCode="AK" Country="United States" GeoZone="NAM" Latitude="70.467275" Longitude="157.435736" />
	</Airport>
	<Airport>
		<Code>ATL</Code>
		<Name>Atlanta, GA, United States</Name>
		<TimeZone>
			<StandardTime>-5</StandardTime>
			<DaylightSaving StartDate="2004-03-28" EndDate="2004-10-31">-4</DaylightSaving>
		</TimeZone>
		<Other iso2="US" iso3="USA" StateCode="GA" Country="United States" GeoZone="NAM" Latitude="33.640444" Longitude="84.426944" />
	</Airport>
	<Airport>
		<Code>ATM</Code>
		<Name>Altamira, Brazil</Name>
		<TimeZone>
			<StandardTime>-3</StandardTime>
		</TimeZone>
		<Other iso2="BR" iso3="BRA" StateCode="" Country="Brazil" GeoZone="LAM" Latitude="-3.250833" Longitude="52.252222" />
	</Airport>
	<Airport>
		<Code>ATN</Code>
		<Name>Namatanai, Papua New Guinea</Name>
		<TimeZone>
			<StandardTime>10</StandardTime>
		</TimeZone>
		<Other iso2="PG" iso3="PNG" StateCode="" Country="Papua New Guinea" GeoZone="PAC" Latitude="-3.672767" Longitude="-152.440583" />
	</Airport>
	<Airport>
		<Code>ATO</Code>
		<Name>Athens, OH, United States</Name>
		<TimeZone>
			<StandardTime>-5</StandardTime>
			<DaylightSaving StartDate="2004-04-04" EndDate="2004-10-31">-4</DaylightSaving>
		</TimeZone>
		<Other iso2="US" iso3="USA" StateCode="OH" Country="United States" GeoZone="NAM" Latitude="39.211892" Longitude="82.229253" />
	</Airport>
	<Airport>
		<Code>ATP</Code>
		<Name>Aitape, </Name>
		<TimeZone>
			<StandardTime>10</StandardTime>
		</TimeZone>
	</Airport>
	<Airport>
		<Code>ATQ</Code>
		<Name>Amritsar, India</Name>
		<TimeZone>
			<StandardTime>0</StandardTime>
		</TimeZone>
		<Other iso2="IN" iso3="IND" StateCode="" Country="India" GeoZone="ASI" Latitude="31.704444" Longitude="-74.802083" />
	</Airport>
	<Airport>
		<Code>ATR</Code>
		<Name>Atar, Mauritania</Name>
		<TimeZone>
			<StandardTime>0</StandardTime>
			<DaylightSaving StartDate="2004-03-28" EndDate="2004-10-31">1</DaylightSaving>
		</TimeZone>
		<Other iso2="MR" iso3="MRT" StateCode="" Country="Mauritania" GeoZone="AFR" Latitude="20.500833" Longitude="13.046667" />
	</Airport>
	<Airport>
		<Code>ATS</Code>
		<Name>Artesia, United States</Name>
		<TimeZone>
			<StandardTime>0</StandardTime>
		</TimeZone>
		<Other iso2="US" iso3="USA" StateCode="NM" Country="United States" GeoZone="NAM" Latitude="32.852528" Longitude="104.467686" />
	</Airport>
	<Airport>
		<Code>ATT</Code>
		<Name>Atmautluak, AK, United States</Name>
		<TimeZone>
			<StandardTime>-9</StandardTime>
			<DaylightSaving StartDate="2004-03-28" EndDate="2004-10-31">-8</DaylightSaving>
		</TimeZone>
		<Other iso2="US" iso3="USA" StateCode="AK" Country="United States" GeoZone="NAM" Latitude="60.866744" Longitude="162.273139" />
	</Airport>
	<Airport>
		<Code>ATW</Code>
		<Name>Appleton, WI, United States</Name>
		<TimeZone>
			<StandardTime>-6</StandardTime>
			<DaylightSaving StartDate="2004-04-04" EndDate="2004-10-31">-5</DaylightSaving>
		</TimeZone>
		<Other iso2="US" iso3="USA" StateCode="WI" Country="United States" GeoZone="NAM" Latitude="44.258097" Longitude="88.519069" />
	</Airport>
	<Airport>
		<Code>ATY</Code>
		<Name>Watertown, SD, United States</Name>
		<TimeZone>
			<StandardTime>-6</StandardTime>
			<DaylightSaving StartDate="2004-03-28" EndDate="2004-10-31">-5</DaylightSaving>
		</TimeZone>
		<Other iso2="US" iso3="USA" StateCode="SD" Country="United States" GeoZone="NAM" Latitude="44.913981" Longitude="97.154719" />
	</Airport>
	<Airport>
		<Code>ATZ</Code>
		<Name>Asyut, Egypt</Name>
		<TimeZone>
			<StandardTime>0</StandardTime>
		</TimeZone>
		<Other iso2="EG" iso3="EGY" StateCode="" Country="Egypt" GeoZone="AFR" Latitude="27.046389" Longitude="-31.011944" />
	</Airport>
	<Airport>
		<Code>AUA</Code>
		<Name>Aruba, Aruba</Name>
		<TimeZone>
			<StandardTime>-4</StandardTime>
		</TimeZone>
		<Other iso2="AW" iso3="ABW" StateCode="" Country="Aruba" GeoZone="CAB" Latitude="12.501383" Longitude="70.015231" />
	</Airport>
	<Airport>
		<Code>AUC</Code>
		<Name>Araura, Colombia</Name>
		<TimeZone>
			<StandardTime>-5</StandardTime>
			<DaylightSaving StartDate="2004-03-28" EndDate="2004-10-31">-4</DaylightSaving>
		</TimeZone>
		<Other iso2="CO" iso3="COL" StateCode="" Country="Colombia" GeoZone="LAM" Latitude="7.068911" Longitude="70.736936" />
	</Airport>
	<Airport>
		<Code>AUF</Code>
		<Name>Auxerre Branches, France</Name>
		<TimeZone>
			<StandardTime>1</StandardTime>
			<DaylightSaving StartDate="2004-03-28" EndDate="2004-10-31">2</DaylightSaving>
		</TimeZone>
		<Other iso2="FR" iso3="FRA" StateCode="" Country="France" GeoZone="EUR" Latitude="47.846389" Longitude="-3.496667" />
	</Airport>
	<Airport>
		<Code>AUG</Code>
		<Name>Augusta, ME, United States</Name>
		<TimeZone>
			<StandardTime>-5</StandardTime>
			<DaylightSaving StartDate="2004-04-04" EndDate="2004-10-31">-4</DaylightSaving>
		</TimeZone>
		<Other iso2="US" iso3="USA" StateCode="ME" Country="United States" GeoZone="NAM" Latitude="44.320639" Longitude="69.797306" />
	</Airport>
	<Airport>
		<Code>AUH</Code>
		<Name>Abu Dhabi, United Arab Emirates</Name>
		<TimeZone>
			<StandardTime>4</StandardTime>
			<DaylightSaving StartDate="2004-03-28" EndDate="2004-10-31">5</DaylightSaving>
		</TimeZone>
		<Other iso2="AE" iso3="ARE" StateCode="" Country="United Arab Emirates" GeoZone="MEA" Latitude="24.433056" Longitude="-54.651111" />
	</Airport>
	<Airport>
		<Code>AUJ</Code>
		<Name>Ambunti, </Name>
		<TimeZone>
			<StandardTime>10</StandardTime>
		</TimeZone>
	</Airport>
	<Airport>
		<Code>AUK</Code>
		<Name>Alakanuk, AK, United States</Name>
		<TimeZone>
			<StandardTime>-9</StandardTime>
			<DaylightSaving StartDate="2004-04-04" EndDate="2004-10-31">-8</DaylightSaving>
		</TimeZone>
		<Other iso2="US" iso3="USA" StateCode="AK" Country="United States" GeoZone="NAM" Latitude="62.680044" Longitude="164.659925" />
	</Airport>
	<Airport>
		<Code>AUL</Code>
		<Name>AurIsland, </Name>
		<TimeZone>
			<StandardTime>12</StandardTime>
		</TimeZone>
	</Airport>
	<Airport>
		<Code>AUM</Code>
		<Name>Austin, United States</Name>
		<TimeZone>
			<StandardTime>0</StandardTime>
		</TimeZone>
		<Other iso2="US" iso3="USA" StateCode="MN" Country="United States" GeoZone="NAM" Latitude="43.664992" Longitude="92.933386" />
	</Airport>
	<Airport>
		<Code>AUN</Code>
		<Name>Auburn, United States</Name>
		<TimeZone>
			<StandardTime>0</StandardTime>
		</TimeZone>
		<Other iso2="US" iso3="USA" StateCode="CA" Country="United States" GeoZone="NAM" Latitude="38.954819" Longitude="121.081725" />
	</Airport>
	<Airport>
		<Code>AUO</Code>
		<Name>Auburn Opelika Pitts, United States</Name>
		<TimeZone>
			<StandardTime>0</StandardTime>
		</TimeZone>
		<Other iso2="US" iso3="USA" StateCode="AL" Country="United States" GeoZone="NAM" Latitude="32.615119" Longitude="85.434014" />
	</Airport>
	<Airport>
		<Code>AUP</Code>
		<Name>Agaun, </Name>
		<TimeZone>
			<StandardTime>10</StandardTime>
		</TimeZone>
	</Airport>
	<Airport>
		<Code>AUQ</Code>
		<Name>Atuona, </Name>
		<TimeZone>
			<StandardTime>-9:30</StandardTime>
		</TimeZone>
	</Airport>
	<Airport>
		<Code>AUR</Code>
		<Name>Aurillac, France</Name>
		<TimeZone>
			<StandardTime>1</StandardTime>
			<DaylightSaving StartDate="2004-03-28" EndDate="2004-10-31">2</DaylightSaving>
		</TimeZone>
		<Other iso2="FR" iso3="FRA" StateCode="" Country="France" GeoZone="EUR" Latitude="44.897500" Longitude="-2.416667" />
	</Airport>
	<Airport>
		<Code>AUS</Code>
		<Name>Austin, TX, United States</Name>
		<TimeZone>
			<StandardTime>-6</StandardTime>
			<DaylightSaving StartDate="2004-04-04" EndDate="2004-10-31">-5</DaylightSaving>
		</TimeZone>
		<Other iso2="US" iso3="USA" StateCode="TX" Country="United States" GeoZone="NAM" Latitude="30.194528" Longitude="97.669889" />
	</Airport>
	<Airport>
		<Code>AUU</Code>
		<Name>Aurukun Mission, Australia</Name>
		<TimeZone>
			<StandardTime>10</StandardTime>
			<DaylightSaving StartDate="2004-03-28" EndDate="2004-10-31">11</DaylightSaving>
		</TimeZone>
		<Other iso2="AU" iso3="AUS" StateCode="" Country="Australia" GeoZone="PAC" Latitude="-13.353842" Longitude="-141.720822" />
	</Airport>
	<Airport>
		<Code>AUV</Code>
		<Name>Aumo, </Name>
		<TimeZone>
			<StandardTime>10</StandardTime>
		</TimeZone>
	</Airport>
	<Airport>
		<Code>AUW</Code>
		<Name>Wausau, WI, United States</Name>
		<TimeZone>
			<StandardTime>-6</StandardTime>
			<DaylightSaving StartDate="2004-04-04" EndDate="2004-10-31">-5</DaylightSaving>
		</TimeZone>
		<Other iso2="US" iso3="USA" StateCode="WI" Country="United States" GeoZone="NAM" Latitude="44.926156" Longitude="89.626636" />
	</Airport>
	<Airport>
		<Code>AUX</Code>
		<Name>Araguaina, Brazil</Name>
		<TimeZone>
			<StandardTime>-3</StandardTime>
		</TimeZone>
		<Other iso2="BR" iso3="BRA" StateCode="" Country="Brazil" GeoZone="LAM" Latitude="-7.228056" Longitude="48.240278" />
	</Airport>
	<Airport>
		<Code>AUY</Code>
		<Name>Aneityum, </Name>
		<TimeZone>
			<StandardTime>11</StandardTime>
			<DaylightSaving StartDate="2004-03-28" EndDate="2004-10-31">12</DaylightSaving>
		</TimeZone>
	</Airport>
	<Airport>
		<Code>AUZ</Code>
		<Name>Chicago Aurora, United States</Name>
		<TimeZone>
			<StandardTime>0</StandardTime>
		</TimeZone>
		<Other iso2="US" iso3="USA" StateCode="IL" Country="United States" GeoZone="NAM" Latitude="41.771931" Longitude="88.475658" />
	</Airport>
	<Airport>
		<Code>AVF</Code>
		<Name>Avoriaz, </Name>
		<TimeZone>
			<StandardTime>1</StandardTime>
			<DaylightSaving StartDate="2004-03-28" EndDate="2004-10-31">2</DaylightSaving>
		</TimeZone>
	</Airport>
	<Airport>
		<Code>AVI</Code>
		<Name>CiegodeAvila, Cuba</Name>
		<TimeZone>
			<StandardTime>-5</StandardTime>
			<DaylightSaving StartDate="2004-03-28" EndDate="2004-10-31">-4</DaylightSaving>
		</TimeZone>
		<Other iso2="CU" iso3="CUB" StateCode="" Country="Cuba" GeoZone="CAB" Latitude="22.026944" Longitude="78.789444" />
	</Airport>
	<Airport>
		<Code>AVL</Code>
		<Name>Asheville, NC, United States</Name>
		<TimeZone>
			<StandardTime>-5</StandardTime>
			<DaylightSaving StartDate="2004-04-04" EndDate="2004-10-31">-4</DaylightSaving>
		</TimeZone>
		<Other iso2="US" iso3="USA" StateCode="NC" Country="United States" GeoZone="NAM" Latitude="35.436194" Longitude="82.541806" />
	</Airport>
	<Airport>
		<Code>AVN</Code>
		<Name>Avignon, France</Name>
		<TimeZone>
			<StandardTime>1</StandardTime>
			<DaylightSaving StartDate="2004-03-28" EndDate="2004-10-31">2</DaylightSaving>
		</TimeZone>
		<Other iso2="FR" iso3="FRA" StateCode="" Country="France" GeoZone="EUR" Latitude="43.906667" Longitude="-4.901944" />
	</Airport>
	<Airport>
		<Code>AVO</Code>
		<Name>Avon Park Executive, United States</Name>
		<TimeZone>
			<StandardTime>0</StandardTime>
		</TimeZone>
		<Other iso2="US" iso3="USA" StateCode="FL" Country="United States" GeoZone="NAM" Latitude="27.591167" Longitude="81.527833" />
	</Airport>
	<Airport>
		<Code>AVP</Code>
		<Name>Wilkes-Barre/Sertn, PA, United States</Name>
		<TimeZone>
			<StandardTime>-5</StandardTime>
			<DaylightSaving StartDate="2004-04-04" EndDate="2004-10-31">-4</DaylightSaving>
		</TimeZone>
		<Other iso2="US" iso3="USA" StateCode="PA" Country="United States" GeoZone="NAM" Latitude="41.338478" Longitude="75.723403" />
	</Airport>
	<Airport>
		<Code>AVU</Code>
		<Name>AvuAvu, Solomon Islands</Name>
		<TimeZone>
			<StandardTime>11</StandardTime>
		</TimeZone>
		<Other iso2="SB" iso3="SLB" StateCode="" Country="Solomon Islands" GeoZone="PAC" Latitude="-9.868178" Longitude="-160.410392" />
	</Airport>
	<Airport>
		<Code>AVV</Code>
		<Name>Avalon, Australia</Name>
		<TimeZone>
			<StandardTime>10</StandardTime>
			<DaylightSaving StartDate="2004-10-03" EndDate="2004-03-28">11</DaylightSaving>
		</TimeZone>
		<Other iso2="AU" iso3="AUS" StateCode="" Country="Australia" GeoZone="PAC" Latitude="-38.039444" Longitude="-144.469444" />
	</Airport>
	<Airport>
		<Code>AVW</Code>
		<Name>Tucson Marana, United States</Name>
		<TimeZone>
			<StandardTime>0</StandardTime>
		</TimeZone>
		<Other iso2="US" iso3="USA" StateCode="AZ" Country="United States" GeoZone="NAM" Latitude="32.409556" Longitude="111.218389" />
	</Airport>
	<Airport>
		<Code>AVX</Code>
		<Name>Avalon Catalina, United States</Name>
		<TimeZone>
			<StandardTime>0</StandardTime>
		</TimeZone>
		<Other iso2="US" iso3="USA" StateCode="CA" Country="United States" GeoZone="NAM" Latitude="33.404944" Longitude="118.415861" />
	</Airport>
	<Airport>
		<Code>AWD</Code>
		<Name>Aniwa, </Name>
		<TimeZone>
			<StandardTime>11</StandardTime>
		</TimeZone>
	</Airport>
	<Airport>
		<Code>AWM</Code>
		<Name>West Memphis, United States</Name>
		<TimeZone>
			<StandardTime>0</StandardTime>
		</TimeZone>
		<Other iso2="US" iso3="USA" StateCode="AR" Country="United States" GeoZone="NAM" Latitude="35.135058" Longitude="90.234447" />
	</Airport>
	<Airport>
		<Code>AWZ</Code>
		<Name>Ahwaz, Iran</Name>
		<TimeZone>
			<StandardTime>3:30</StandardTime>
			<DaylightSaving StartDate="2004-03-28" EndDate="2004-10-31">4:30</DaylightSaving>
		</TimeZone>
		<Other iso2="IR" iso3="IRN" StateCode="" Country="Iran" GeoZone="MEA" Latitude="31.337500" Longitude="-48.760278" />
	</Airport>
	<Airport>
		<Code>AXA</Code>
		<Name>Anguilla, Anguilla</Name>
		<TimeZone>
			<StandardTime>-4</StandardTime>
		</TimeZone>
		<Other iso2="AI" iso3="AIA" StateCode="" Country="Anguilla" GeoZone="CAB" Latitude="18.204800" Longitude="63.053856" />
	</Airport>
	<Airport>
		<Code>AXD</Code>
		<Name>Alexandroupolis, Greece</Name>
		<TimeZone>
			<StandardTime>2</StandardTime>
			<DaylightSaving StartDate="2004-03-28" EndDate="2004-10-31">3</DaylightSaving>
		</TimeZone>
		<Other iso2="GR" iso3="GRC" StateCode="" Country="Greece" GeoZone="EUR" Latitude="40.855833" Longitude="-25.956111" />
	</Airport>
	<Airport>
		<Code>AXG</Code>
		<Name>Algona, United States</Name>
		<TimeZone>
			<StandardTime>0</StandardTime>
		</TimeZone>
		<Other iso2="US" iso3="USA" StateCode="IA" Country="United States" GeoZone="NAM" Latitude="43.077911" Longitude="94.271992" />
	</Airport>
	<Airport>
		<Code>AXK</Code>
		<Name>Ataq, </Name>
		<TimeZone>
			<StandardTime>3</StandardTime>
		</TimeZone>
	</Airport>
	<Airport>
		<Code>AXM</Code>
		<Name>Armenia, Colombia</Name>
		<TimeZone>
			<StandardTime>-5</StandardTime>
			<DaylightSaving StartDate="2004-03-28" EndDate="2004-10-31">-4</DaylightSaving>
		</TimeZone>
		<Other iso2="CO" iso3="COL" StateCode="" Country="Colombia" GeoZone="LAM" Latitude="4.453458" Longitude="75.765931" />
	</Airport>
	<Airport>
		<Code>AXN</Code>
		<Name>Alexandria Chandler, United States</Name>
		<TimeZone>
			<StandardTime>0</StandardTime>
		</TimeZone>
		<Other iso2="US" iso3="USA" StateCode="MN" Country="United States" GeoZone="NAM" Latitude="45.866294" Longitude="95.394678" />
	</Airport>
	<Airport>
		<Code>AXP</Code>
		<Name>Spring Point, Bahamas</Name>
		<TimeZone>
			<StandardTime>-5</StandardTime>
			<DaylightSaving StartDate="2004-04-04" EndDate="2004-10-31">-4</DaylightSaving>
		</TimeZone>
		<Other iso2="BS" iso3="BHS" StateCode="" Country="Bahamas" GeoZone="CAB" Latitude="22.444444" Longitude="73.975000" />
	</Airport>
	<Airport>
		<Code>AXR</Code>
		<Name>Arutua, French Polynesia</Name>
		<TimeZone>
			<StandardTime>0</StandardTime>
		</TimeZone>
		<Other iso2="PF" iso3="PYF" StateCode="" Country="French Polynesia" GeoZone="PAC" Latitude="-15.246389" Longitude="146.620278" />
	</Airport>
	<Airport>
		<Code>AXS</Code>
		<Name>Altus Quartz Mountain, United States</Name>
		<TimeZone>
			<StandardTime>0</StandardTime>
		</TimeZone>
		<Other iso2="US" iso3="USA" StateCode="OK" Country="United States" GeoZone="NAM" Latitude="34.698783" Longitude="99.338100" />
	</Airport>
	<Airport>
		<Code>AXT</Code>
		<Name>Akita, Japan</Name>
		<TimeZone>
			<StandardTime>9</StandardTime>
			<DaylightSaving StartDate="2004-03-28" EndDate="2004-10-31">10</DaylightSaving>
		</TimeZone>
		<Other iso2="JP" iso3="JPN" StateCode="" Country="Japan" GeoZone="ASI" Latitude="39.615556" Longitude="-140.218611" />
	</Airport>
	<Airport>
		<Code>AXU</Code>
		<Name>Axum, Ethiopia</Name>
		<TimeZone>
			<StandardTime>3</StandardTime>
			<DaylightSaving StartDate="2004-03-28" EndDate="2004-10-31">4</DaylightSaving>
		</TimeZone>
		<Other iso2="ET" iso3="ETH" StateCode="" Country="Ethiopia" GeoZone="AFR" Latitude="14.137069" Longitude="-38.776056" />
	</Airport>
	<Airport>
		<Code>AXV</Code>
		<Name>Wapakoneta Armstrong, United States</Name>
		<TimeZone>
			<StandardTime>0</StandardTime>
		</TimeZone>
		<Other iso2="US" iso3="USA" StateCode="OH" Country="United States" GeoZone="NAM" Latitude="40.493389" Longitude="84.298944" />
	</Airport>
	<Airport>
		<Code>AXX</Code>
		<Name>Angel Fire, United States</Name>
		<TimeZone>
			<StandardTime>0</StandardTime>
		</TimeZone>
		<Other iso2="US" iso3="USA" StateCode="NM" Country="United States" GeoZone="NAM" Latitude="36.422000" Longitude="105.289906" />
	</Airport>
	<Airport>
		<Code>AYK</Code>
		<Name>Arkalyk, </Name>
		<TimeZone>
			<StandardTime>6</StandardTime>
			<DaylightSaving StartDate="2004-03-28" EndDate="2004-10-30">7</DaylightSaving>
		</TimeZone>
	</Airport>
	<Airport>
		<Code>AYP</Code>
		<Name>Ayacucho, Peru</Name>
		<TimeZone>
			<StandardTime>-5</StandardTime>
			<DaylightSaving StartDate="2004-03-28" EndDate="2004-10-31">-4</DaylightSaving>
		</TimeZone>
		<Other iso2="PE" iso3="PER" StateCode="" Country="Peru" GeoZone="LAM" Latitude="-13.151111" Longitude="74.201667" />
	</Airport>
	<Airport>
		<Code>AYQ</Code>
		<Name>Ayers Rock, Australia</Name>
		<TimeZone>
			<StandardTime>9:30</StandardTime>
			<DaylightSaving StartDate="2004-03-28" EndDate="2004-10-31">10:30</DaylightSaving>
		</TimeZone>
